23:09:12,559 DEBUG plugin:1362 - URL of my class :jar:file:/Users/francispapineau/NetBeansProjects/ECG-JAVA/trunk/ECGJAVa2GOOD/gpsylon_bin-0.5.3/gpsylon-0.5.3.jar!/org/dinopolis/gpstool/Gpsylon.class, dir of jar is /Users/francispapineau/NetBeansProjects/ECG-JAVA/trunk/ECGJAVa2GOOD/gpsylon_bin-0.5.3
23:09:12,571 DEBUG plugin:1389 - Adding default plugin dir: /Users/francispapineau/NetBeansProjects/ECG-JAVA/trunk/ECGJAVa2GOOD/gpsylon_bin-0.5.3/plugins
23:09:12,572 DEBUG plugin:1410 - Adding repository for plugin/service jars: /Users/francispapineau/.gpsylon/plugins
23:09:12,572 DEBUG plugin:1403 - Ignoring duplicate plugin/service repository: /Users/francispapineau/.gpsylon/plugins
23:09:12,595 DEBUG plugin:2949 - plugins for writing image detected: (java.lang.Object[2])org.dinopolis.gpstool.plugin.writerasterimage.WriteJpgImagePlugin@7114460,org.dinopolis.gpstool.plugin.writerasterimage.WritePngImagePlugin@7e9ffe3f
23:09:12,600 DEBUG connection:1657 - connecting in gps mode 'serial' with gps protocol 'nmea'
23:09:12,601 DEBUG connection:1721 - connecting to nmea device /dev/cu.usbmodem411
23:09:12,610 INFO  Gpsylon:1762 - Connecting to gpsdevice on port /dev/cu.usbmodem411 at 9600 baud
23:09:12,611 DEBUG GPSSerialDevice:113 - try to connect to port '/dev/cu.usbmodem411' using 9600 baud
23:09:12,634 DEBUG GPSSerialDevice:118 - setting speed and serial params to 8,N,1
23:09:12,635 DEBUG GPSNmeaDataProcessor:285 - start reading from GPSDevice...
23:09:12,635 DEBUG GPSNmeaDataProcessor:295 - inputstream: gnu.io.RXTXPort$SerialInputStream@e5d391d
23:09:12,638 DEBUG NMEA0183Sentence:62 - raw data='$GPGGA,040912.000,4516.7929,N,07550.9991,W,1,07,1.1,133.2,M,-34.3,M,,0000*61'
23:09:12,639 DEBUG message:342 - message: '$GPGGA,040912.000,4516.7929,N,07550.9991,W,1,07,1.1,133.2,M,-34.3,M,,0000*61'
23:09:12,639 DEBUG message:343 - sentenceId: 'GGA'
23:09:12,640 DEBUG nmea:602 - GGA detected: $GPGGA,040912.000,4516.7929,N,07550.9991,W,1,07,1.1,133.2,M,-34.3,M,,0000*61
23:09:12,641 DEBUG GPSGeneralDataProcessor:417 - fire event for key location oldvalue=null new=GPSPosition[lat: 45.27988166666667, long:-75.849985]
23:09:12,641 DEBUG propertychange:1175 - property change event: location=GPSPosition[lat: 45.27988166666667, long:-75.849985] from org.dinopolis.gpstool.gpsinput.nmea.GPSNmeaDataProcessor@65efb4be
23:09:12,643 DEBUG gpsdata:1228 - gps event: position old=null, new=LatLonPoint[lat=45.27988,lon=-75.84998]
23:09:12,644 DEBUG GPSGeneralDataProcessor:417 - fire event for key number_satellites oldvalue=null new=7
23:09:12,644 DEBUG propertychange:1175 - property change event: number_satellites=7 from org.dinopolis.gpstool.gpsinput.nmea.GPSNmeaDataProcessor@65efb4be
23:09:12,644 DEBUG gpsdata:1240 - gps event: 'number_satellites': old=null new=7
23:09:12,645 DEBUG GPSGeneralDataProcessor:417 - fire event for key horizontal_dop oldvalue=null new=1.1
23:09:12,650 DEBUG propertychange:1175 - property change event: horizontal_dop=1.1 from org.dinopolis.gpstool.gpsinput.nmea.GPSNmeaDataProcessor@65efb4be
23:09:12,650 DEBUG gpsdata:1240 - gps event: 'horizontal_dop': old=null new=1.1
23:09:12,651 DEBUG GPSGeneralDataProcessor:417 - fire event for key altitude oldvalue=null new=133.2
23:09:12,651 DEBUG propertychange:1175 - property change event: altitude=133.2 from org.dinopolis.gpstool.gpsinput.nmea.GPSNmeaDataProcessor@65efb4be
23:09:12,651 DEBUG gpsdata:1240 - gps event: 'altitude': old=null new=133.2
23:09:12,652 DEBUG NMEA0183Sentence:62 - raw data='$GPGSA,A,3,32,22,12,01,11,31,25,,,,271111,,,A*78'
23:09:12,652 DEBUG message:342 - message: '$GPGSA,A,3,32,22,12,01,11,31,25,,,,271111,,,A*78'
23:09:12,652 DEBUG message:343 - sentenceId: 'GSA'
23:09:12,652 ERROR GPSNmeaDataProcessor:368 - ERORR: invalid checksum in NMEA message: $GPGSA,A,3,32,22,12,01,11,31,25,,,,271111,,,A*78
23:09:12,653 ERROR GPSNmeaDataProcessor:369 - checksum of sentence: 120, calculated checksum: 114
23:09:12,653 DEBUG NMEA0183Sentence:62 - raw data='$GPGGA,040912.000,4516.7929,N,07550.9991,W,1,07,1.1,133.2,M,-34.3,M,,0000*61'
23:09:12,654 DEBUG message:342 - message: '$GPGGA,040912.000,4516.7929,N,07550.9991,W,1,07,1.1,133.2,M,-34.3,M,,0000*61'
23:09:12,654 DEBUG message:343 - sentenceId: 'GGA'
23:09:12,659 DEBUG nmea:602 - GGA detected: $GPGGA,040912.000,4516.7929,N,07550.9991,W,1,07,1.1,133.2,M,-34.3,M,,0000*61
23:09:12,660 DEBUG GPSGeneralDataProcessor:417 - fire event for key location oldvalue=GPSPosition[lat: 45.27988166666667, long:-75.849985] new=GPSPosition[lat: 45.27988166666667, long:-75.849985]
23:09:12,661 DEBUG GPSGeneralDataProcessor:417 - fire event for key number_satellites oldvalue=7 new=7
23:09:12,661 DEBUG GPSGeneralDataProcessor:417 - fire event for key horizontal_dop oldvalue=1.1 new=1.1
23:09:12,661 DEBUG GPSGeneralDataProcessor:417 - fire event for key altitude oldvalue=133.2 new=133.2
23:09:12,773 INFO  Gpsylon:585 - Plugins in the following locations are used:
23:09:12,774 INFO  Gpsylon:594 - /Users/francispapineau/NetBeansProjects/ECG-JAVA/trunk/ECGJAVa2GOOD/gpsylon_bin-0.5.3/plugins
23:09:12,818 INFO  Gpsylon:1440 - Added Gui Plugin: Average Position V0.01
23:09:12,823 INFO  Gpsylon:1440 - Added Gui Plugin: GPSTool V0.01
23:09:12,842 INFO  Gpsylon:1440 - Added Gui Plugin: ImportExport V0.01
23:09:12,842 INFO  Gpsylon:1440 - Added Gui Plugin: Kismet Import V0.01
23:09:12,857 INFO  Gpsylon:1440 - Added Gui Plugin: Map Manager V0.01
23:09:12,859 INFO  Gpsylon:1440 - Added Gui Plugin: Track Charts V0.01
23:09:12,870 INFO  Gpsylon:1440 - Added Gui Plugin: Tracks V0.01
23:09:13,019 INFO  Gpsylon:1453 - Added Mouse Mode Plugin: Download Maps V1.1
23:09:13,043 INFO  Gpsylon:1453 - Added Mouse Mode Plugin: Navigation Mode V1.0
23:09:13,982 DEBUG NMEA0183Sentence:62 - raw data='$GPGSV,3,2,11,32,37,307,25,12,28,049,27,01,17,292,28,20,12,317,*7F'
23:09:13,982 DEBUG message:342 - message: '$GPGSV,3,2,11,32,37,307,25,12,28,049,27,01,17,292,28,20,12,317,*7F'
23:09:13,982 DEBUG message:343 - sentenceId: 'GSV'
23:09:13,982 DEBUG nmea:736 - GSV detected: $GPGSV,3,2,11,32,37,307,25,12,28,049,27,01,17,292,28,20,12,317,*7F
23:09:13,983 DEBUG nmea:749 - GSV-message in wrong order, ignoring it!
23:09:14,109 DEBUG NMEA0183Sentence:62 - raw data='$GPGSV,3,3,11,30,11,190,17,11,05,273,25,18,01,151,*4D'
23:09:14,109 DEBUG message:342 - message: '$GPGSV,3,3,11,30,11,190,17,11,05,273,25,18,01,151,*4D'
23:09:14,109 DEBUG message:343 - sentenceId: 'GSV'
23:09:14,109 DEBUG nmea:736 - GSV detected: $GPGSV,3,3,11,30,11,190,17,11,05,273,25,18,01,151,*4D
23:09:14,109 DEBUG nmea:749 - GSV-message in wrong order, ignoring it!
23:09:14,346 DEBUG MapInfo:356 - Image 'null' loaded.
23:09:14,427 DEBUG MapInfo:356 - Image '/Users/francispapineau/.gpsylon/maps/map_000162.gif' loaded.
23:09:14,434 DEBUG MapInfo:356 - Image '/Users/francispapineau/.gpsylon/maps/map_000160.gif' loaded.
23:09:14,439 DEBUG MapInfo:356 - Image '/Users/francispapineau/.gpsylon/maps/map_000223.gif' loaded.
23:09:14,445 DEBUG MapInfo:356 - Image '/Users/francispapineau/.gpsylon/maps/map_000153.gif' loaded.
23:09:14,451 DEBUG MapInfo:356 - Image '/Users/francispapineau/.gpsylon/maps/map_000159.gif' loaded.
23:09:14,457 DEBUG MapInfo:356 - Image '/Users/francispapineau/.gpsylon/maps/map_000156.gif' loaded.
23:09:14,463 DEBUG MapInfo:356 - Image '/Users/francispapineau/.gpsylon/maps/map_000154.gif' loaded.
23:09:14,474 DEBUG MapInfo:356 - Image '/Users/francispapineau/.gpsylon/maps/map_000222.gif' loaded.
23:09:14,666 DEBUG NMEA0183Sentence:62 - raw data='$GPGSA,A,3,32,22,12,01,11,31,25,,,,,,2.2,1.1,1.9*3C'
23:09:14,666 DEBUG message:342 - message: '$GPGSA,A,3,32,22,12,01,11,31,25,,,,,,2.2,1.1,1.9*3C'
23:09:14,666 DEBUG message:343 - sentenceId: 'GSA'
23:09:14,666 DEBUG nmea:654 - GSA detected: $GPGSA,A,3,32,22,12,01,11,31,25,,,,,,2.2,1.1,1.9*3C
23:09:14,666 DEBUG GPSGeneralDataProcessor:417 - fire event for key position_dop oldvalue=null new=2.2
23:09:14,667 DEBUG propertychange:1175 - property change event: position_dop=2.2 from org.dinopolis.gpstool.gpsinput.nmea.GPSNmeaDataProcessor@65efb4be
23:09:14,667 DEBUG gpsdata:1240 - gps event: 'position_dop': old=null new=2.2
23:09:14,667 DEBUG GPSGeneralDataProcessor:417 - fire event for key horizontal_dop oldvalue=1.1 new=1.1
23:09:14,667 DEBUG GPSGeneralDataProcessor:417 - fire event for key vertical_dop oldvalue=null new=1.9
23:09:14,667 DEBUG propertychange:1175 - property change event: vertical_dop=1.9 from org.dinopolis.gpstool.gpsinput.nmea.GPSNmeaDataProcessor@65efb4be
23:09:14,668 DEBUG gpsdata:1240 - gps event: 'vertical_dop': old=null new=1.9
23:09:14,668 DEBUG GPSGeneralDataProcessor:417 - fire event for key ids_satellites oldvalue=null new=[Ljava.lang.Integer;@4e8deb8a
23:09:14,668 DEBUG propertychange:1175 - property change event: ids_satellites=[Ljava.lang.Integer;@4e8deb8a from org.dinopolis.gpstool.gpsinput.nmea.GPSNmeaDataProcessor@65efb4be
23:09:14,668 DEBUG gpsdata:1240 - gps event: 'ids_satellites': old=null new=[Ljava.lang.Integer;@4e8deb8a
23:09:14,834 DEBUG NMEA0183Sentence:62 - raw data='$GPRMC,040914.000,A,4516.7929,N,07550.9991,W,0.00,355.12,271111,,,A*7D'
23:09:14,834 DEBUG message:342 - message: '$GPRMC,040914.000,A,4516.7929,N,07550.9991,W,0.00,355.12,271111,,,A*7D'
23:09:14,834 DEBUG message:343 - sentenceId: 'RMC'
23:09:14,834 DEBUG nmea:690 - RMC detected: $GPRMC,040914.000,A,4516.7929,N,07550.9991,W,0.00,355.12,271111,,,A*7D
23:09:14,835 DEBUG GPSGeneralDataProcessor:417 - fire event for key location oldvalue=GPSPosition[lat: 45.27988166666667, long:-75.849985] new=GPSPosition[lat: 45.27988166666667, long:-75.849985]
23:09:14,835 DEBUG GPSGeneralDataProcessor:417 - fire event for key speed oldvalue=null new=0.0
23:09:14,835 DEBUG propertychange:1175 - property change event: speed=0.0 from org.dinopolis.gpstool.gpsinput.nmea.GPSNmeaDataProcessor@65efb4be
23:09:14,835 DEBUG gpsdata:1240 - gps event: 'speed': old=null new=0.0
23:09:15,551 DEBUG NMEA0183Sentence:62 - raw data='$GPGGA,040915.000,4516.7929,N,07550.8991,W,1,07,1.1,133.2,M,-34.3,M,,0000*66'
23:09:15,551 DEBUG message:342 - message: '$GPGGA,040915.000,4516.7929,N,07550.8991,W,1,07,1.1,133.2,M,-34.3,M,,0000*66'
23:09:15,551 DEBUG message:343 - sentenceId: 'GGA'
23:09:15,551 ERROR GPSNmeaDataProcessor:368 - ERORR: invalid checksum in NMEA message: $GPGGA,040915.000,4516.7929,N,07550.8991,W,1,07,1.1,133.2,M,-34.3,M,,0000*66
23:09:15,551 ERROR GPSNmeaDataProcessor:369 - checksum of sentence: 102, calculated checksum: 103
23:09:16,550 DEBUG NMEA0183Sentence:62 - raw data='$GPGGA,040916.000,4516.7929,N,07550.9991,W,1,07,1,1,133.2,M,-34.3,M,,0000*65'
23:09:16,550 DEBUG message:342 - message: '$GPGGA,040916.000,4516.7929,N,07550.9991,W,1,07,1,1,133.2,M,-34.3,M,,0000*65'
23:09:16,550 DEBUG message:343 - sentenceId: 'GGA'
23:09:16,550 ERROR GPSNmeaDataProcessor:368 - ERORR: invalid checksum in NMEA message: $GPGGA,040916.000,4516.7929,N,07550.9991,W,1,07,1,1,133.2,M,-34.3,M,,0000*65
23:09:16,550 ERROR GPSNmeaDataProcessor:369 - checksum of sentence: 101, calculated checksum: 103
23:09:16,672 DEBUG NMEA0183Sentence:62 - raw data='$GPGSA,A,3,32,22,12,01,11,31,25,,,,,,2.2,1.1,1.9*3C'
23:09:16,673 DEBUG message:342 - message: '$GPGSA,A,3,32,22,12,01,11,31,25,,,,,,2.2,1.1,1.9*3C'
23:09:16,673 DEBUG message:343 - sentenceId: 'GSA'
23:09:16,673 DEBUG nmea:654 - GSA detected: $GPGSA,A,3,32,22,12,01,11,31,25,,,,,,2.2,1.1,1.9*3C
23:09:16,673 DEBUG GPSGeneralDataProcessor:417 - fire event for key position_dop oldvalue=2.2 new=2.2
23:09:16,673 DEBUG GPSGeneralDataProcessor:417 - fire event for key horizontal_dop oldvalue=1.1 new=1.1
23:09:16,673 DEBUG GPSGeneralDataProcessor:417 - fire event for key vertical_dop oldvalue=1.9 new=1.9
23:09:16,674 DEBUG GPSGeneralDataProcessor:417 - fire event for key ids_satellites oldvalue=[Ljava.lang.Integer;@4e8deb8a new=[Ljava.lang.Integer;@7ee41d4a
23:09:16,674 DEBUG propertychange:1175 - property change event: ids_satellites=[Ljava.lang.Integer;@7ee41d4a from org.dinopolis.gpstool.gpsinput.nmea.GPSNmeaDataProcessor@65efb4be
23:09:16,674 DEBUG gpsdata:1240 - gps event: 'ids_satellites': old=[Ljava.lang.Integer;@4e8deb8a new=[Ljava.lang.Integer;@7ee41d4a
23:09:16,836 DEBUG NMEA0183Sentence:62 - raw data='$GPRMC,040916.000,A,4516.7929,N,07550.9991,W,0.00,355.12,271111,,,A*7F'
23:09:16,837 DEBUG message:342 - message: '$GPRMC,040916.000,A,4516.7929,N,07550.9991,W,0.00,355.12,271111,,,A*7F'
23:09:16,837 DEBUG message:343 - sentenceId: 'RMC'
23:09:16,837 DEBUG nmea:690 - RMC detected: $GPRMC,040916.000,A,4516.7929,N,07550.9991,W,0.00,355.12,271111,,,A*7F
23:09:16,837 DEBUG GPSGeneralDataProcessor:417 - fire event for key location oldvalue=GPSPosition[lat: 45.27988166666667, long:-75.849985] new=GPSPosition[lat: 45.27988166666667, long:-75.849985]
23:09:16,837 DEBUG GPSGeneralDataProcessor:417 - fire event for key speed oldvalue=0.0 new=0.0
23:09:17,544 DEBUG NMEA0183Sentence:62 - raw data='$GPGGA,040917.000,4516.7929,N,07550.9991,W,1,07,1.1,133.2,M,-34.3,M,,0000*64'
23:09:17,545 DEBUG message:342 - message: '$GPGGA,040917.000,4516.7929,N,07550.9991,W,1,07,1.1,133.2,M,-34.3,M,,0000*64'
23:09:17,545 DEBUG message:343 - sentenceId: 'GGA'
23:09:17,545 DEBUG nmea:602 - GGA detected: $GPGGA,040917.000,4516.7929,N,07550.9991,W,1,07,1.1,133.2,M,-34.3,M,,0000*64
23:09:17,545 DEBUG GPSGeneralDataProcessor:417 - fire event for key location oldvalue=GPSPosition[lat: 45.27988166666667, long:-75.849985] new=GPSPosition[lat: 45.27988166666667, long:-75.849985]
23:09:17,545 DEBUG GPSGeneralDataProcessor:417 - fire event for key number_satellites oldvalue=7 new=7
23:09:17,546 DEBUG GPSGeneralDataProcessor:417 - fire event for key horizontal_dop oldvalue=1.1 new=1.1
23:09:17,546 DEBUG GPSGeneralDataProcessor:417 - fire event for key altitude oldvalue=133.2 new=133.2
23:09:18,556 DEBUG NMEA0183Sentence:62 - raw data='$GPGGA,040918.000,4516.7929,N,07550.9991,W,1,07,1.1,133.2,M,-34.3,M,,0000*6B'
23:09:18,557 DEBUG message:342 - message: '$GPGGA,040918.000,4516.7929,N,07550.9991,W,1,07,1.1,133.2,M,-34.3,M,,0000*6B'
23:09:18,557 DEBUG message:343 - sentenceId: 'GGA'
23:09:18,557 DEBUG nmea:602 - GGA detected: $GPGGA,040918.000,4516.7929,N,07550.9991,W,1,07,1.1,133.2,M,-34.3,M,,0000*6B
23:09:18,557 DEBUG GPSGeneralDataProcessor:417 - fire event for key location oldvalue=GPSPosition[lat: 45.27988166666667, long:-75.849985] new=GPSPosition[lat: 45.27988166666667, long:-75.849985]
23:09:18,557 DEBUG GPSGeneralDataProcessor:417 - fire event for key number_satellites oldvalue=7 new=7
23:09:18,557 DEBUG GPSGeneralDataProcessor:417 - fire event for key horizontal_dop oldvalue=1.1 new=1.1
23:09:18,558 DEBUG GPSGeneralDataProcessor:417 - fire event for key altitude oldvalue=133.2 new=133.2
23:09:18,675 DEBUG NMEA0183Sentence:62 - raw data='$GPGSA,A,3,32,22,12,01,11,31,25,,,,,,2.2,1.1,1.9*3C'
23:09:18,676 DEBUG message:342 - message: '$GPGSA,A,3,32,22,12,01,11,31,25,,,,,,2.2,1.1,1.9*3C'
23:09:18,676 DEBUG message:343 - sentenceId: 'GSA'
23:09:18,676 DEBUG nmea:654 - GSA detected: $GPGSA,A,3,32,22,12,01,11,31,25,,,,,,2.2,1.1,1.9*3C
23:09:18,676 DEBUG GPSGeneralDataProcessor:417 - fire event for key position_dop oldvalue=2.2 new=2.2
23:09:18,676 DEBUG GPSGeneralDataProcessor:417 - fire event for key horizontal_dop oldvalue=1.1 new=1.1
23:09:18,676 DEBUG GPSGeneralDataProcessor:417 - fire event for key vertical_dop oldvalue=1.9 new=1.9
23:09:18,677 DEBUG GPSGeneralDataProcessor:417 - fire event for key ids_satellites oldvalue=[Ljava.lang.Integer;@7ee41d4a new=[Ljava.lang.Integer;@323f265b
23:09:18,677 DEBUG propertychange:1175 - property change event: ids_satellites=[Ljava.lang.Integer;@323f265b from org.dinopolis.gpstool.gpsinput.nmea.GPSNmeaDataProcessor@65efb4be
23:09:18,677 DEBUG gpsdata:1240 - gps event: 'ids_satellites': old=[Ljava.lang.Integer;@7ee41d4a new=[Ljava.lang.Integer;@323f265b
23:09:18,831 DEBUG NMEA0183Sentence:62 - raw data='$GPGSV,3,1,11,14,70,063(,31,55,242,3ê?25,47,083,27,22,38,168,18*7B'
23:09:18,832 DEBUG message:342 - message: '$GPGSV,3,1,11,14,70,063(,31,55,242,3ê?25,47,083,27,22,38,168,18*7B'
23:09:18,832 DEBUG message:343 - sentenceId: 'GSV'
23:09:18,832 ERROR GPSNmeaDataProcessor:368 - ERORR: invalid checksum in NMEA message: $GPGSV,3,1,11,14,70,063(,31,55,242,3ê?25,47,083,27,22,38,168,18*7B
23:09:18,832 ERROR GPSNmeaDataProcessor:369 - checksum of sentence: 123, calculated checksum: 61
23:09:18,986 DEBUG NMEA0183Sentence:62 - raw data='$GPGSV,2,2,11,32,37,307,25,12,28,049,28,01,17,292,28,20,12,317,*70'
23:09:18,987 DEBUG message:342 - message: '$GPGSV,2,2,11,32,37,307,25,12,28,049,28,01,17,292,28,20,12,317,*70'
23:09:18,987 DEBUG message:343 - sentenceId: 'GSV'
23:09:18,987 ERROR GPSNmeaDataProcessor:368 - ERORR: invalid checksum in NMEA message: $GPGSV,2,2,11,32,37,307,25,12,28,049,28,01,17,292,28,20,12,317,*70
23:09:18,987 ERROR GPSNmeaDataProcessor:369 - checksum of sentence: 112, calculated checksum: 113
23:09:19,113 DEBUG NMEA0183Sentence:62 - raw data='$GPGSV,3,3,11,30,11,190,18,11,05,273,25,18,01,151,*42'
23:09:19,114 DEBUG message:342 - message: '$GPGSV,3,3,11,30,11,190,18,11,05,273,25,18,01,151,*42'
23:09:19,114 DEBUG message:343 - sentenceId: 'GSV'
23:09:19,114 DEBUG nmea:736 - GSV detected: $GPGSV,3,3,11,30,11,190,18,11,05,273,25,18,01,151,*42
23:09:19,114 DEBUG nmea:749 - GSV-message in wrong order, ignoring it!
23:09:19,277 DEBUG NMEA0183Sentence:62 - raw data='$GPRMC,040918.000,A,4516.7929,N,07550.9991,W,0.00,355.12,271111,,,A*71'
23:09:19,278 DEBUG message:342 - message: '$GPRMC,040918.000,A,4516.7929,N,07550.9991,W,0.00,355.12,271111,,,A*71'
23:09:19,278 DEBUG message:343 - sentenceId: 'RMC'
23:09:19,278 DEBUG nmea:690 - RMC detected: $GPRMC,040918.000,A,4516.7929,N,07550.9991,W,0.00,355.12,271111,,,A*71
23:09:19,278 DEBUG GPSGeneralDataProcessor:417 - fire event for key location oldvalue=GPSPosition[lat: 45.27988166666667, long:-75.849985] new=GPSPosition[lat: 45.27988166666667, long:-75.849985]
23:09:19,278 DEBUG GPSGeneralDataProcessor:417 - fire event for key speed oldvalue=0.0 new=0.0
23:09:19,547 DEBUG NMEA0183Sentence:62 - raw data='$GPGGA,040919.000,4516.7929,N,07550.9991,W,1,07,1.1,133.2,M,-34.3,M,,0000*6A'
23:09:19,548 DEBUG message:342 - message: '$GPGGA,040919.000,4516.7929,N,07550.9991,W,1,07,1.1,133.2,M,-34.3,M,,0000*6A'
23:09:19,548 DEBUG message:343 - sentenceId: 'GGA'
23:09:19,548 DEBUG nmea:602 - GGA detected: $GPGGA,040919.000,4516.7929,N,07550.9991,W,1,07,1.1,133.2,M,-34.3,M,,0000*6A
23:09:19,548 DEBUG GPSGeneralDataProcessor:417 - fire event for key location oldvalue=GPSPosition[lat: 45.27988166666667, long:-75.849985] new=GPSPosition[lat: 45.27988166666667, long:-75.849985]
23:09:19,548 DEBUG GPSGeneralDataProcessor:417 - fire event for key number_satellites oldvalue=7 new=7
23:09:19,548 DEBUG GPSGeneralDataProcessor:417 - fire event for key horizontal_dop oldvalue=1.1 new=1.1
23:09:19,549 DEBUG GPSGeneralDataProcessor:417 - fire event for key altitude oldvalue=133.2 new=133.2
23:09:19,670 DEBUG NMEA0183Sentence:62 - raw data='$GPGSA,A,3,32,22,12,01,11,31,25,,,,,,2.2,1.1,1.9*3C'
23:09:19,671 DEBUG message:342 - message: '$GPGSA,A,3,32,22,12,01,11,31,25,,,,,,2.2,1.1,1.9*3C'
23:09:19,671 DEBUG message:343 - sentenceId: 'GSA'
23:09:19,671 DEBUG nmea:654 - GSA detected: $GPGSA,A,3,32,22,12,01,11,31,25,,,,,,2.2,1.1,1.9*3C
23:09:19,671 DEBUG GPSGeneralDataProcessor:417 - fire event for key position_dop oldvalue=2.2 new=2.2
23:09:19,671 DEBUG GPSGeneralDataProcessor:417 - fire event for key horizontal_dop oldvalue=1.1 new=1.1
23:09:19,671 DEBUG GPSGeneralDataProcessor:417 - fire event for key vertical_dop oldvalue=1.9 new=1.9
23:09:19,672 DEBUG GPSGeneralDataProcessor:417 - fire event for key ids_satellites oldvalue=[Ljava.lang.Integer;@323f265b new=[Ljava.lang.Integer;@78b3e62
23:09:19,672 DEBUG propertychange:1175 - property change event: ids_satellites=[Ljava.lang.Integer;@78b3e62 from org.dinopolis.gpstool.gpsinput.nmea.GPSNmeaDataProcessor@65efb4be
23:09:19,672 DEBUG gpsdata:1240 - gps event: 'ids_satellites': old=[Ljava.lang.Integer;@323f265b new=[Ljava.lang.Integer;@78b3e62
23:09:20,670 DEBUG NMEA0183Sentence:62 - raw data='$GPGSA,A,3,32,22,12,01,11,31,25,,,,,,2.2,1.1,1.9*3C'
23:09:20,671 DEBUG message:342 - message: '$GPGSA,A,3,32,22,12,01,11,31,25,,,,,,2.2,1.1,1.9*3C'
23:09:20,671 DEBUG message:343 - sentenceId: 'GSA'
23:09:20,671 DEBUG nmea:654 - GSA detected: $GPGSA,A,3,32,22,12,01,11,31,25,,,,,,2.2,1.1,1.9*3C
23:09:20,671 DEBUG GPSGeneralDataProcessor:417 - fire event for key position_dop oldvalue=2.2 new=2.2
23:09:20,671 DEBUG GPSGeneralDataProcessor:417 - fire event for key horizontal_dop oldvalue=1.1 new=1.1
23:09:20,671 DEBUG GPSGeneralDataProcessor:417 - fire event for key vertical_dop oldvalue=1.9 new=1.9
23:09:20,671 DEBUG GPSGeneralDataProcessor:417 - fire event for key ids_satellites oldvalue=[Ljava.lang.Integer;@78b3e62 new=[Ljava.lang.Integer;@156a9424
23:09:20,672 DEBUG propertychange:1175 - property change event: ids_satellites=[Ljava.lang.Integer;@156a9424 from org.dinopolis.gpstool.gpsinput.nmea.GPSNmeaDataProcessor@65efb4be
23:09:20,672 DEBUG gpsdata:1240 - gps event: 'ids_satellites': old=[Ljava.lang.Integer;@78b3e62 new=[Ljava.lang.Integer;@156a9424
23:09:20,834 DEBUG NMEA0183Sentence:62 - raw data='$GPRMC,040920.000,A,4516.7929,N,07550.9991,W,0.00,355.12,271111,,,A*7A'
23:09:20,834 DEBUG message:342 - message: '$GPRMC,040920.000,A,4516.7929,N,07550.9991,W,0.00,355.12,271111,,,A*7A'
23:09:20,835 DEBUG message:343 - sentenceId: 'RMC'
23:09:20,835 DEBUG nmea:690 - RMC detected: $GPRMC,040920.000,A,4516.7929,N,07550.9991,W,0.00,355.12,271111,,,A*7A
23:09:20,835 DEBUG GPSGeneralDataProcessor:417 - fire event for key location oldvalue=GPSPosition[lat: 45.27988166666667, long:-75.849985] new=GPSPosition[lat: 45.27988166666667, long:-75.849985]
23:09:20,835 DEBUG GPSGeneralDataProcessor:417 - fire event for key speed oldvalue=0.0 new=0.0
23:09:21,550 DEBUG NMEA0183Sentence:62 - raw data='$GPGGA,040921.000,4516.7929,N,07550.9991,W,1,07,1.1,133.2,M,-34.3,M,,0000*61'
23:09:21,551 DEBUG message:342 - message: '$GPGGA,040921.000,4516.7929,N,07550.9991,W,1,07,1.1,133.2,M,-34.3,M,,0000*61'
23:09:21,551 DEBUG message:343 - sentenceId: 'GGA'
23:09:21,551 DEBUG nmea:602 - GGA detected: $GPGGA,040921.000,4516.7929,N,07550.9991,W,1,07,1.1,133.2,M,-34.3,M,,0000*61
23:09:21,551 DEBUG GPSGeneralDataProcessor:417 - fire event for key location oldvalue=GPSPosition[lat: 45.27988166666667, long:-75.849985] new=GPSPosition[lat: 45.27988166666667, long:-75.849985]
23:09:21,551 DEBUG GPSGeneralDataProcessor:417 - fire event for key number_satellites oldvalue=7 new=7
23:09:21,552 DEBUG GPSGeneralDataProcessor:417 - fire event for key horizontal_dop oldvalue=1.1 new=1.1
23:09:21,552 DEBUG GPSGeneralDataProcessor:417 - fire event for key altitude oldvalue=133.2 new=133.2
23:09:21,673 DEBUG NMEA0183Sentence:62 - raw data='$GPGSA,A,3,32,22,12,01,11,31,25,,,,,,2.2,1.1,1.9*3C'
23:09:21,673 DEBUG message:342 - message: '$GPGSA,A,3,32,22,12,01,11,31,25,,,,,,2.2,1.1,1.9*3C'
23:09:21,674 DEBUG message:343 - sentenceId: 'GSA'
23:09:21,674 DEBUG nmea:654 - GSA detected: $GPGSA,A,3,32,22,12,01,11,31,25,,,,,,2.2,1.1,1.9*3C
23:09:21,674 DEBUG GPSGeneralDataProcessor:417 - fire event for key position_dop oldvalue=2.2 new=2.2
23:09:21,674 DEBUG GPSGeneralDataProcessor:417 - fire event for key horizontal_dop oldvalue=1.1 new=1.1
23:09:21,674 DEBUG GPSGeneralDataProcessor:417 - fire event for key vertical_dop oldvalue=1.9 new=1.9
23:09:21,674 DEBUG GPSGeneralDataProcessor:417 - fire event for key ids_satellites oldvalue=[Ljava.lang.Integer;@156a9424 new=[Ljava.lang.Integer;@5e4b2b75
23:09:21,675 DEBUG propertychange:1175 - property change event: ids_satellites=[Ljava.lang.Integer;@5e4b2b75 from org.dinopolis.gpstool.gpsinput.nmea.GPSNmeaDataProcessor@65efb4be
23:09:21,675 DEBUG gpsdata:1240 - gps event: 'ids_satellites': old=[Ljava.lang.Integer;@156a9424 new=[Ljava.lang.Integer;@5e4b2b75
23:09:21,837 DEBUG NMEA0183Sentence:62 - raw data='$GPRMC,040921.000,A,4516.7929,N,07550.9991,W,0.00,355.12,271111,,,A*7B'
23:09:21,837 DEBUG message:342 - message: '$GPRMC,040921.000,A,4516.7929,N,07550.9991,W,0.00,355.12,271111,,,A*7B'
23:09:21,838 DEBUG message:343 - sentenceId: 'RMC'
23:09:21,838 DEBUG nmea:690 - RMC detected: $GPRMC,040921.000,A,4516.7929,N,07550.9991,W,0.00,355.12,271111,,,A*7B
23:09:21,838 DEBUG GPSGeneralDataProcessor:417 - fire event for key location oldvalue=GPSPosition[lat: 45.27988166666667, long:-75.849985] new=GPSPosition[lat: 45.27988166666667, long:-75.849985]
23:09:21,838 DEBUG GPSGeneralDataProcessor:417 - fire event for key speed oldvalue=0.0 new=0.0
23:09:22,554 DEBUG NMEA0183Sentence:62 - raw data='$GPGGA,040922.000,4516.7929,N,07550.9991,W,1,07,1.1,133.2,M,-34.3,M,,0000*62'
23:09:22,554 DEBUG message:342 - message: '$GPGGA,040922.000,4516.7929,N,07550.9991,W,1,07,1.1,133.2,M,-34.3,M,,0000*62'
23:09:22,555 DEBUG message:343 - sentenceId: 'GGA'
23:09:22,555 DEBUG nmea:602 - GGA detected: $GPGGA,040922.000,4516.7929,N,07550.9991,W,1,07,1.1,133.2,M,-34.3,M,,0000*62
23:09:22,555 DEBUG GPSGeneralDataProcessor:417 - fire event for key location oldvalue=GPSPosition[lat: 45.27988166666667, long:-75.849985] new=GPSPosition[lat: 45.27988166666667, long:-75.849985]
23:09:22,555 DEBUG GPSGeneralDataProcessor:417 - fire event for key number_satellites oldvalue=7 new=7
23:09:22,555 DEBUG GPSGeneralDataProcessor:417 - fire event for key horizontal_dop oldvalue=1.1 new=1.1
23:09:22,555 DEBUG GPSGeneralDataProcessor:417 - fire event for key altitude oldvalue=133.2 new=133.2
23:09:22,626 DEBUG propertychange:1175 - property change event: position.follow_me.mode=0 from org.dinopolis.util.resource.FileResources@6405ce40
23:09:22,677 DEBUG NMEA0183Sentence:62 - raw data='$GPGSA,A,3X?&®L3fè12,01,11,31,25,,,,,,2.2,1.1,1.9*3C'
23:09:22,677 DEBUG message:342 - message: '$GPGSA,A,3X?&®L3fè12,01,11,31,25,,,,,,2.2,1.1,1.9*3C'
23:09:22,677 DEBUG message:343 - sentenceId: 'GSA'
23:09:22,678 ERROR GPSNmeaDataProcessor:368 - ERORR: invalid checksum in NMEA message: $GPGSA,A,3X?&®L3fè12,01,11,31,25,,,,,,2.2,1.1,1.9*3C
23:09:22,678 ERROR GPSNmeaDataProcessor:369 - checksum of sentence: 60, calculated checksum: -32
23:09:22,841 DEBUG NMEA0183Sentence:62 - raw data='$GPRMC,040922.000,A,4516.7929,N,07550.9991,W,0,00,35js&®L??fí?1,,,A*78'
23:09:22,841 DEBUG message:342 - message: '$GPRMC,040922.000,A,4516.7929,N,07550.9991,W,0,00,35js&®L??fí?1,,,A*78'
23:09:22,842 DEBUG message:343 - sentenceId: 'RMC'
23:09:22,842 ERROR GPSNmeaDataProcessor:368 - ERORR: invalid checksum in NMEA message: $GPRMC,040922.000,A,4516.7929,N,07550.9991,W,0,00,35js&®L??fí?1,,,A*78
23:09:22,842 ERROR GPSNmeaDataProcessor:369 - checksum of sentence: 120, calculated checksum: -21
23:09:23,545 DEBUG NMEA0183Sentence:62 - raw data='$GPGGA,040923.000,4516.7929,N,07550.9991,W,1,07,1.1,133.2,M,-34.3,M,,0000*63'
23:09:23,545 DEBUG message:342 - message: '$GPGGA,040923.000,4516.7929,N,07550.9991,W,1,07,1.1,133.2,M,-34.3,M,,0000*63'
23:09:23,546 DEBUG message:343 - sentenceId: 'GGA'
23:09:23,546 DEBUG nmea:602 - GGA detected: $GPGGA,040923.000,4516.7929,N,07550.9991,W,1,07,1.1,133.2,M,-34.3,M,,0000*63
23:09:23,546 DEBUG GPSGeneralDataProcessor:417 - fire event for key location oldvalue=GPSPosition[lat: 45.27988166666667, long:-75.849985] new=GPSPosition[lat: 45.27988166666667, long:-75.849985]
23:09:23,546 DEBUG GPSGeneralDataProcessor:417 - fire event for key number_satellites oldvalue=7 new=7
23:09:23,546 DEBUG GPSGeneralDataProcessor:417 - fire event for key horizontal_dop oldvalue=1.1 new=1.1
23:09:23,546 DEBUG GPSGeneralDataProcessor:417 - fire event for key altitude oldvalue=133.2 new=133.2
23:09:23,668 DEBUG NMEA0183Sentence:62 - raw data='$GPGSA,A,3,32,22,12,01,11,31,25,,,,,,2.2,1.1,1.9*3C'
23:09:23,668 DEBUG message:342 - message: '$GPGSA,A,3,32,22,12,01,11,31,25,,,,,,2.2,1.1,1.9*3C'
23:09:23,668 DEBUG message:343 - sentenceId: 'GSA'
23:09:23,669 DEBUG nmea:654 - GSA detected: $GPGSA,A,3,32,22,12,01,11,31,25,,,,,,2.2,1.1,1.9*3C
23:09:23,669 DEBUG GPSGeneralDataProcessor:417 - fire event for key position_dop oldvalue=2.2 new=2.2
23:09:23,669 DEBUG GPSGeneralDataProcessor:417 - fire event for key horizontal_dop oldvalue=1.1 new=1.1
23:09:23,669 DEBUG GPSGeneralDataProcessor:417 - fire event for key vertical_dop oldvalue=1.9 new=1.9
23:09:23,669 DEBUG GPSGeneralDataProcessor:417 - fire event for key ids_satellites oldvalue=[Ljava.lang.Integer;@5e4b2b75 new=[Ljava.lang.Integer;@70d9cbcb
23:09:23,669 DEBUG propertychange:1175 - property change event: ids_satellites=[Ljava.lang.Integer;@70d9cbcb from org.dinopolis.gpstool.gpsinput.nmea.GPSNmeaDataProcessor@65efb4be
23:09:23,669 DEBUG gpsdata:1240 - gps event: 'ids_satellites': old=[Ljava.lang.Integer;@5e4b2b75 new=[Ljava.lang.Integer;@70d9cbcb
23:09:23,824 DEBUG NMEA0183Sentence:62 - raw data='$GPGSV,3,1,11,14,70,063,,31,55,242,35,25,47,083,28,22,38,168,19*75'
23:09:23,824 DEBUG message:342 - message: '$GPGSV,3,1,11,14,70,063,,31,55,242,35,25,47,083,28,22,38,168,19*75'
23:09:23,824 DEBUG message:343 - sentenceId: 'GSV'
23:09:23,825 DEBUG nmea:736 - GSV detected: $GPGSV,3,1,11,14,70,063,,31,55,242,35,25,47,083,28,22,38,168,19*75
23:09:23,979 DEBUG NMEA0183Sentence:62 - raw data='$GPGSV,3,2,11,32,37,307,05,12,28,049,29,00,07,292,28,20,12,317,*71'
23:09:23,979 DEBUG message:342 - message: '$GPGSV,3,2,11,32,37,307,05,12,28,049,29,00,07,292,28,20,12,317,*71'
23:09:23,979 DEBUG message:343 - sentenceId: 'GSV'
23:09:23,980 ERROR GPSNmeaDataProcessor:368 - ERORR: invalid checksum in NMEA message: $GPGSV,3,2,11,32,37,307,05,12,28,049,29,00,07,292,28,20,12,317,*71
23:09:23,980 ERROR GPSNmeaDataProcessor:369 - checksum of sentence: 113, calculated checksum: 115
23:09:24,106 DEBUG NMEA0183Sentence:62 - raw data='$GPGSV,3,3,11,30,11,190,18,11,05,273,26,18,01,151,*41'
23:09:24,106 DEBUG message:342 - message: '$GPGSV,3,3,11,30,11,190,18,11,05,273,26,18,01,151,*41'
23:09:24,106 DEBUG message:343 - sentenceId: 'GSV'
23:09:24,107 DEBUG nmea:736 - GSV detected: $GPGSV,3,3,11,30,11,190,18,11,05,273,26,18,01,151,*41
23:09:24,107 DEBUG nmea:749 - GSV-message in wrong order, ignoring it!
23:09:24,270 DEBUG NMEA0183Sentence:62 - raw data='$GPRMC,040923.000,A,4516.7929,N,07550.9991,W,0.00,355.12,271111,,,A*79'
23:09:24,270 DEBUG message:342 - message: '$GPRMC,040923.000,A,4516.7929,N,07550.9991,W,0.00,355.12,271111,,,A*79'
23:09:24,270 DEBUG message:343 - sentenceId: 'RMC'
23:09:24,271 DEBUG nmea:690 - RMC detected: $GPRMC,040923.000,A,4516.7929,N,07550.9991,W,0.00,355.12,271111,,,A*79
23:09:24,271 DEBUG GPSGeneralDataProcessor:417 - fire event for key location oldvalue=GPSPosition[lat: 45.27988166666667, long:-75.849985] new=GPSPosition[lat: 45.27988166666667, long:-75.849985]
23:09:24,271 DEBUG GPSGeneralDataProcessor:417 - fire event for key speed oldvalue=0.0 new=0.0
23:09:24,549 DEBUG NMEA0183Sentence:62 - raw data='$GPGGA,`£?&F¾3f?,4516.7929,N,07550.9991,W,1,07,1.1,133.2,M,-34.3,M,,0000*64'
23:09:24,549 DEBUG message:342 - message: '$GPGGA,`£?&F¾3f?,4516.7929,N,07550.9991,W,1,07,1.1,133.2,M,-34.3,M,,0000*64'
23:09:24,549 DEBUG message:343 - sentenceId: 'GGA'
23:09:24,550 ERROR GPSNmeaDataProcessor:368 - ERORR: invalid checksum in NMEA message: $GPGGA,`£?&F¾3f?,4516.7929,N,07550.9991,W,1,07,1.1,133.2,M,-34.3,M,,0000*64
23:09:24,550 ERROR GPSNmeaDataProcessor:369 - checksum of sentence: 100, calculated checksum: 101
23:09:24,672 DEBUG NMEA0183Sentence:62 - raw data='$GPGSA,A,3,32,22,12,01,11,31,25,,,,,,2.2,1.1,1.9*3C'
23:09:24,672 DEBUG message:342 - message: '$GPGSA,A,3,32,22,12,01,11,31,25,,,,,,2.2,1.1,1.9*3C'
23:09:24,672 DEBUG message:343 - sentenceId: 'GSA'
23:09:24,673 DEBUG nmea:654 - GSA detected: $GPGSA,A,3,32,22,12,01,11,31,25,,,,,,2.2,1.1,1.9*3C
23:09:24,673 DEBUG GPSGeneralDataProcessor:417 - fire event for key position_dop oldvalue=2.2 new=2.2
23:09:24,673 DEBUG GPSGeneralDataProcessor:417 - fire event for key horizontal_dop oldvalue=1.1 new=1.1
23:09:24,673 DEBUG GPSGeneralDataProcessor:417 - fire event for key vertical_dop oldvalue=1.9 new=1.9
23:09:24,673 DEBUG GPSGeneralDataProcessor:417 - fire event for key ids_satellites oldvalue=[Ljava.lang.Integer;@70d9cbcb new=[Ljava.lang.Integer;@192425a
23:09:24,673 DEBUG propertychange:1175 - property change event: ids_satellites=[Ljava.lang.Integer;@192425a from org.dinopolis.gpstool.gpsinput.nmea.GPSNmeaDataProcessor@65efb4be
23:09:24,673 DEBUG gpsdata:1240 - gps event: 'ids_satellites': old=[Ljava.lang.Integer;@70d9cbcb new=[Ljava.lang.Integer;@192425a
23:09:24,835 DEBUG NMEA0183Sentence:62 - raw data='$GPRMC,040924.000,A,4516.7929,N,07550.9991,W,0.00,355.12,271111,,,A*7E'
23:09:24,835 DEBUG message:342 - message: '$GPRMC,040924.000,A,4516.7929,N,07550.9991,W,0.00,355.12,271111,,,A*7E'
23:09:24,835 DEBUG message:343 - sentenceId: 'RMC'
23:09:24,836 DEBUG nmea:690 - RMC detected: $GPRMC,040924.000,A,4516.7929,N,07550.9991,W,0.00,355.12,271111,,,A*7E
23:09:24,836 DEBUG GPSGeneralDataProcessor:417 - fire event for key location oldvalue=GPSPosition[lat: 45.27988166666667, long:-75.849985] new=GPSPosition[lat: 45.27988166666667, long:-75.849985]
23:09:24,836 DEBUG GPSGeneralDataProcessor:417 - fire event for key speed oldvalue=0.0 new=0.0
23:09:25,233 DEBUG propertychange:1175 - property change event: position.follow_me.mode=1 from org.dinopolis.util.resource.FileResources@6405ce40
23:09:25,548 DEBUG NMEA0183Sentence:62 - raw data='$GPGGA,040925.000,4516.7929,N,07550.9991,W,1,07,1.1,133.0,M,-34.3,M,,0000*65'
23:09:25,548 DEBUG message:342 - message: '$GPGGA,040925.000,4516.7929,N,07550.9991,W,1,07,1.1,133.0,M,-34.3,M,,0000*65'
23:09:25,548 DEBUG message:343 - sentenceId: 'GGA'
23:09:25,549 ERROR GPSNmeaDataProcessor:368 - ERORR: invalid checksum in NMEA message: $GPGGA,040925.000,4516.7929,N,07550.9991,W,1,07,1.1,133.0,M,-34.3,M,,0000*65
23:09:25,549 ERROR GPSNmeaDataProcessor:369 - checksum of sentence: 101, calculated checksum: 103
23:09:25,671 DEBUG NMEA0183Sentence:62 - raw data='$GPGSA,A,3,32,22,12,01,11,31,25,,,,,,2.2,1.1,1.9*3C'
23:09:25,671 DEBUG message:342 - message: '$GPGSA,A,3,32,22,12,01,11,31,25,,,,,,2.2,1.1,1.9*3C'
23:09:25,671 DEBUG message:343 - sentenceId: 'GSA'
23:09:25,672 DEBUG nmea:654 - GSA detected: $GPGSA,A,3,32,22,12,01,11,31,25,,,,,,2.2,1.1,1.9*3C
23:09:25,672 DEBUG GPSGeneralDataProcessor:417 - fire event for key position_dop oldvalue=2.2 new=2.2
23:09:25,672 DEBUG GPSGeneralDataProcessor:417 - fire event for key horizontal_dop oldvalue=1.1 new=1.1
23:09:25,672 DEBUG GPSGeneralDataProcessor:417 - fire event for key vertical_dop oldvalue=1.9 new=1.9
23:09:25,672 DEBUG GPSGeneralDataProcessor:417 - fire event for key ids_satellites oldvalue=[Ljava.lang.Integer;@192425a new=[Ljava.lang.Integer;@4914a947
23:09:25,672 DEBUG propertychange:1175 - property change event: ids_satellites=[Ljava.lang.Integer;@4914a947 from org.dinopolis.gpstool.gpsinput.nmea.GPSNmeaDataProcessor@65efb4be
23:09:25,672 DEBUG gpsdata:1240 - gps event: 'ids_satellites': old=[Ljava.lang.Integer;@192425a new=[Ljava.lang.Integer;@4914a947
23:09:25,835 DEBUG NMEA0183Sentence:62 - raw data='$GPRMC,040925.000,A,4516.6929,N,07550.9991,W,0.00,355.12,271111,,,A*7F'
23:09:25,835 DEBUG message:342 - message: '$GPRMC,040925.000,A,4516.6929,N,07550.9991,W,0.00,355.12,271111,,,A*7F'
23:09:25,835 DEBUG message:343 - sentenceId: 'RMC'
23:09:25,835 ERROR GPSNmeaDataProcessor:368 - ERORR: invalid checksum in NMEA message: $GPRMC,040925.000,A,4516.6929,N,07550.9991,W,0.00,355.12,271111,,,A*7F
23:09:25,836 ERROR GPSNmeaDataProcessor:369 - checksum of sentence: 127, calculated checksum: 126
23:09:26,543 DEBUG NMEA0183Sentence:62 - raw data='$GPGGA,040926.000,4516.7929,N,07550.9991,W,1,07,1.1,133.2,M,-34.3,M,,0000*66'
23:09:26,543 DEBUG message:342 - message: '$GPGGA,040926.000,4516.7929,N,07550.9991,W,1,07,1.1,133.2,M,-34.3,M,,0000*66'
23:09:26,543 DEBUG message:343 - sentenceId: 'GGA'
23:09:26,543 DEBUG nmea:602 - GGA detected: $GPGGA,040926.000,4516.7929,N,07550.9991,W,1,07,1.1,133.2,M,-34.3,M,,0000*66
23:09:26,544 DEBUG GPSGeneralDataProcessor:417 - fire event for key location oldvalue=GPSPosition[lat: 45.27988166666667, long:-75.849985] new=GPSPosition[lat: 45.27988166666667, long:-75.849985]
23:09:26,544 DEBUG GPSGeneralDataProcessor:417 - fire event for key number_satellites oldvalue=7 new=7
23:09:26,544 DEBUG GPSGeneralDataProcessor:417 - fire event for key horizontal_dop oldvalue=1.1 new=1.1
23:09:26,544 DEBUG GPSGeneralDataProcessor:417 - fire event for key altitude oldvalue=133.2 new=133.2
23:09:26,666 DEBUG NMEA0183Sentence:62 - raw data='$GPGSA,A,3,32,22,12,01,11,31,25,,,,,,2.2,1.1,1.9*3C'
23:09:26,666 DEBUG message:342 - message: '$GPGSA,A,3,32,22,12,01,11,31,25,,,,,,2.2,1.1,1.9*3C'
23:09:26,666 DEBUG message:343 - sentenceId: 'GSA'
23:09:26,666 DEBUG nmea:654 - GSA detected: $GPGSA,A,3,32,22,12,01,11,31,25,,,,,,2.2,1.1,1.9*3C
23:09:26,667 DEBUG GPSGeneralDataProcessor:417 - fire event for key position_dop oldvalue=2.2 new=2.2
23:09:26,667 DEBUG GPSGeneralDataProcessor:417 - fire event for key horizontal_dop oldvalue=1.1 new=1.1
23:09:26,667 DEBUG GPSGeneralDataProcessor:417 - fire event for key vertical_dop oldvalue=1.9 new=1.9
23:09:26,667 DEBUG GPSGeneralDataProcessor:417 - fire event for key ids_satellites oldvalue=[Ljava.lang.Integer;@4914a947 new=[Ljava.lang.Integer;@2d388e5e
23:09:26,667 DEBUG propertychange:1175 - property change event: ids_satellites=[Ljava.lang.Integer;@2d388e5e from org.dinopolis.gpstool.gpsinput.nmea.GPSNmeaDataProcessor@65efb4be
23:09:26,667 DEBUG gpsdata:1240 - gps event: 'ids_satellites': old=[Ljava.lang.Integer;@4914a947 new=[Ljava.lang.Integer;@2d388e5e
23:09:27,666 DEBUG NMEA0183Sentence:62 - raw data='$GPGSA,A,3,32,22,12,01,11,31,25,,,,,,2.2,1.1,1.9*3C'
23:09:27,666 DEBUG message:342 - message: '$GPGSA,A,3,32,22,12,01,11,31,25,,,,,,2.2,1.1,1.9*3C'
23:09:27,666 DEBUG message:343 - sentenceId: 'GSA'
23:09:27,666 DEBUG nmea:654 - GSA detected: $GPGSA,A,3,32,22,12,01,11,31,25,,,,,,2.2,1.1,1.9*3C
23:09:27,667 DEBUG GPSGeneralDataProcessor:417 - fire event for key position_dop oldvalue=2.2 new=2.2
23:09:27,667 DEBUG GPSGeneralDataProcessor:417 - fire event for key horizontal_dop oldvalue=1.1 new=1.1
23:09:27,667 DEBUG GPSGeneralDataProcessor:417 - fire event for key vertical_dop oldvalue=1.9 new=1.9
23:09:27,667 DEBUG GPSGeneralDataProcessor:417 - fire event for key ids_satellites oldvalue=[Ljava.lang.Integer;@2d388e5e new=[Ljava.lang.Integer;@5c0ad483
23:09:27,667 DEBUG propertychange:1175 - property change event: ids_satellites=[Ljava.lang.Integer;@5c0ad483 from org.dinopolis.gpstool.gpsinput.nmea.GPSNmeaDataProcessor@65efb4be
23:09:27,667 DEBUG gpsdata:1240 - gps event: 'ids_satellites': old=[Ljava.lang.Integer;@2d388e5e new=[Ljava.lang.Integer;@5c0ad483
23:09:27,830 DEBUG NMEA0183Sentence:62 - raw data='$GPRMC,040927.000,A,4516.7929,N,07550.9990,W,0.00,355.12,271111,,,A*7D'
23:09:27,830 DEBUG message:342 - message: '$GPRMC,040927.000,A,4516.7929,N,07550.9990,W,0.00,355.12,271111,,,A*7D'
23:09:27,830 DEBUG message:343 - sentenceId: 'RMC'
23:09:27,830 ERROR GPSNmeaDataProcessor:368 - ERORR: invalid checksum in NMEA message: $GPRMC,040927.000,A,4516.7929,N,07550.9990,W,0.00,355.12,271111,,,A*7D
23:09:27,831 ERROR GPSNmeaDataProcessor:369 - checksum of sentence: 125, calculated checksum: 124
23:09:28,550 DEBUG NMEA0183Sentence:62 - raw data='$GPGGA,040928.000,4516.7929,N,07550.9991,W,1,07,1.1,133.2,M,-34.3,M,,0000*68'
23:09:28,550 DEBUG message:342 - message: '$GPGGA,040928.000,4516.7929,N,07550.9991,W,1,07,1.1,133.2,M,-34.3,M,,0000*68'
23:09:28,550 DEBUG message:343 - sentenceId: 'GGA'
23:09:28,550 DEBUG nmea:602 - GGA detected: $GPGGA,040928.000,4516.7929,N,07550.9991,W,1,07,1.1,133.2,M,-34.3,M,,0000*68
23:09:28,551 DEBUG GPSGeneralDataProcessor:417 - fire event for key location oldvalue=GPSPosition[lat: 45.27988166666667, long:-75.849985] new=GPSPosition[lat: 45.27988166666667, long:-75.849985]
23:09:28,551 DEBUG GPSGeneralDataProcessor:417 - fire event for key number_satellites oldvalue=7 new=7
23:09:28,551 DEBUG GPSGeneralDataProcessor:417 - fire event for key horizontal_dop oldvalue=1.1 new=1.1
23:09:28,551 DEBUG GPSGeneralDataProcessor:417 - fire event for key altitude oldvalue=133.2 new=133.2
23:09:28,673 DEBUG NMEA0183Sentence:62 - raw data='$GPGSA,A,3,32,22,12,01,11,31,25,,,,,,2.2,1.1,1.9*3C'
23:09:28,673 DEBUG message:342 - message: '$GPGSA,A,3,32,22,12,01,11,31,25,,,,,,2.2,1.1,1.9*3C'
23:09:28,673 DEBUG message:343 - sentenceId: 'GSA'
23:09:28,673 DEBUG nmea:654 - GSA detected: $GPGSA,A,3,32,22,12,01,11,31,25,,,,,,2.2,1.1,1.9*3C
23:09:28,673 DEBUG GPSGeneralDataProcessor:417 - fire event for key position_dop oldvalue=2.2 new=2.2
23:09:28,674 DEBUG GPSGeneralDataProcessor:417 - fire event for key horizontal_dop oldvalue=1.1 new=1.1
23:09:28,674 DEBUG GPSGeneralDataProcessor:417 - fire event for key vertical_dop oldvalue=1.9 new=1.9
23:09:28,674 DEBUG GPSGeneralDataProcessor:417 - fire event for key ids_satellites oldvalue=[Ljava.lang.Integer;@5c0ad483 new=[Ljava.lang.Integer;@4c4b11e9
23:09:28,674 DEBUG propertychange:1175 - property change event: ids_satellites=[Ljava.lang.Integer;@4c4b11e9 from org.dinopolis.gpstool.gpsinput.nmea.GPSNmeaDataProcessor@65efb4be
23:09:28,674 DEBUG gpsdata:1240 - gps event: 'ids_satellites': old=[Ljava.lang.Integer;@5c0ad483 new=[Ljava.lang.Integer;@4c4b11e9
23:09:28,829 DEBUG NMEA0183Sentence:62 - raw data='$GPGSV,3,1,11,14,70,063,,31,55,242,36,25,47,083,28,22,38,168,19*76'
23:09:28,829 DEBUG message:342 - message: '$GPGSV,3,1,11,14,70,063,,31,55,242,36,25,47,083,28,22,38,168,19*76'
23:09:28,829 DEBUG message:343 - sentenceId: 'GSV'
23:09:28,829 DEBUG nmea:736 - GSV detected: $GPGSV,3,1,11,14,70,063,,31,55,242,36,25,47,083,28,22,38,168,19*76
23:09:28,985 DEBUG NMEA0183Sentence:62 - raw data='$GPGSV,3,2,11,32,37,307,26,12,28,049,30,01,16,292,27,20,12,317,*75'
23:09:28,985 DEBUG message:342 - message: '$GPGSV,3,2,11,32,37,307,26,12,28,049,30,01,16,292,27,20,12,317,*75'
23:09:28,985 DEBUG message:343 - sentenceId: 'GSV'
23:09:28,985 ERROR GPSNmeaDataProcessor:368 - ERORR: invalid checksum in NMEA message: $GPGSV,3,2,11,32,37,307,26,12,28,049,30,01,16,292,27,20,12,317,*75
23:09:28,985 ERROR GPSNmeaDataProcessor:369 - checksum of sentence: 117, calculated checksum: 116
23:09:29,112 DEBUG NMEA0183Sentence:62 - raw data='$GPGSV,3,3,11,30,11,190,19,10,05,273,26,18,01,151,*40'
23:09:29,112 DEBUG message:342 - message: '$GPGSV,3,3,11,30,11,190,19,10,05,273,26,18,01,151,*40'
23:09:29,112 DEBUG message:343 - sentenceId: 'GSV'
23:09:29,112 ERROR GPSNmeaDataProcessor:368 - ERORR: invalid checksum in NMEA message: $GPGSV,3,3,11,30,11,190,19,10,05,273,26,18,01,151,*40
23:09:29,113 ERROR GPSNmeaDataProcessor:369 - checksum of sentence: 64, calculated checksum: 65
23:09:29,275 DEBUG NMEA0183Sentence:62 - raw data='$GPRMC,040928.000,A,4516.7929,N,07550.9991,W,0.00,355.12,271111,,,A*72'
23:09:29,275 DEBUG message:342 - message: '$GPRMC,040928.000,A,4516.7929,N,07550.9991,W,0.00,355.12,271111,,,A*72'
23:09:29,275 DEBUG message:343 - sentenceId: 'RMC'
23:09:29,275 DEBUG nmea:690 - RMC detected: $GPRMC,040928.000,A,4516.7929,N,07550.9991,W,0.00,355.12,271111,,,A*72
23:09:29,288 DEBUG GPSGeneralDataProcessor:417 - fire event for key location oldvalue=GPSPosition[lat: 45.27988166666667, long:-75.849985] new=GPSPosition[lat: 45.27988166666667, long:-75.849985]
23:09:29,288 DEBUG GPSGeneralDataProcessor:417 - fire event for key speed oldvalue=0.0 new=0.0
23:09:29,546 DEBUG NMEA0183Sentence:62 - raw data='$GPGGA,040929.000,4516.7929,N,07550.9991,W,1,07,1.1,133.2,M,-34.3,M,,0000*69'
23:09:29,546 DEBUG message:342 - message: '$GPGGA,040929.000,4516.7929,N,07550.9991,W,1,07,1.1,133.2,M,-34.3,M,,0000*69'
23:09:29,546 DEBUG message:343 - sentenceId: 'GGA'
23:09:29,546 DEBUG nmea:602 - GGA detected: $GPGGA,040929.000,4516.7929,N,07550.9991,W,1,07,1.1,133.2,M,-34.3,M,,0000*69
23:09:29,546 DEBUG GPSGeneralDataProcessor:417 - fire event for key location oldvalue=GPSPosition[lat: 45.27988166666667, long:-75.849985] new=GPSPosition[lat: 45.27988166666667, long:-75.849985]
23:09:29,547 DEBUG GPSGeneralDataProcessor:417 - fire event for key number_satellites oldvalue=7 new=7
23:09:29,547 DEBUG GPSGeneralDataProcessor:417 - fire event for key horizontal_dop oldvalue=1.1 new=1.1
23:09:29,547 DEBUG GPSGeneralDataProcessor:417 - fire event for key altitude oldvalue=133.2 new=133.2
23:09:29,669 DEBUG NMEA0183Sentence:62 - raw data='$GPGSA,A,3,32,22,12,01,11,31,25,,,,,,2.2,1.1,1.9*3C'
23:09:29,669 DEBUG message:342 - message: '$GPGSA,A,3,32,22,12,01,11,31,25,,,,,,2.2,1.1,1.9*3C'
23:09:29,669 DEBUG message:343 - sentenceId: 'GSA'
23:09:29,669 DEBUG nmea:654 - GSA detected: $GPGSA,A,3,32,22,12,01,11,31,25,,,,,,2.2,1.1,1.9*3C
23:09:29,669 DEBUG GPSGeneralDataProcessor:417 - fire event for key position_dop oldvalue=2.2 new=2.2
23:09:29,670 DEBUG GPSGeneralDataProcessor:417 - fire event for key horizontal_dop oldvalue=1.1 new=1.1
23:09:29,670 DEBUG GPSGeneralDataProcessor:417 - fire event for key vertical_dop oldvalue=1.9 new=1.9
23:09:29,670 DEBUG GPSGeneralDataProcessor:417 - fire event for key ids_satellites oldvalue=[Ljava.lang.Integer;@4c4b11e9 new=[Ljava.lang.Integer;@182153fe
23:09:29,670 DEBUG propertychange:1175 - property change event: ids_satellites=[Ljava.lang.Integer;@182153fe from org.dinopolis.gpstool.gpsinput.nmea.GPSNmeaDataProcessor@65efb4be
23:09:29,670 DEBUG gpsdata:1240 - gps event: 'ids_satellites': old=[Ljava.lang.Integer;@4c4b11e9 new=[Ljava.lang.Integer;@182153fe
23:09:29,833 DEBUG NMEA0183Sentence:62 - raw data='$GPRMC,040929.000,A,4516.7929,N,07550.9991,W,0.00,355.12,271111,,,A*73'
23:09:29,833 DEBUG message:342 - message: '$GPRMC,040929.000,A,4516.7929,N,07550.9991,W,0.00,355.12,271111,,,A*73'
23:09:29,833 DEBUG message:343 - sentenceId: 'RMC'
23:09:29,833 DEBUG nmea:690 - RMC detected: $GPRMC,040929.000,A,4516.7929,N,07550.9991,W,0.00,355.12,271111,,,A*73
23:09:29,833 DEBUG GPSGeneralDataProcessor:417 - fire event for key location oldvalue=GPSPosition[lat: 45.27988166666667, long:-75.849985] new=GPSPosition[lat: 45.27988166666667, long:-75.849985]
23:09:29,833 DEBUG GPSGeneralDataProcessor:417 - fire event for key speed oldvalue=0.0 new=0.0
23:09:30,287 DEBUG propertychange:1175 - property change event: current_map_position.latitude=47.059999999999995 from org.dinopolis.util.resource.FileResources@6405ce40
23:09:30,287 DEBUG propertychange:1175 - property change event: current_map_position.longitude=15.473055555555556 from org.dinopolis.util.resource.FileResources@6405ce40
23:09:30,336 DEBUG MapInfo:356 - Image '/Users/francispapineau/.gpsylon/maps/map_000224.gif' loaded.
23:09:30,545 DEBUG NMEA0183Sentence:62 - raw data='$GPGGA,040930.000,4516.7929,N,07550.9991,W,,07,1.1,133.2,M,-34.3,M,,0000*61'
23:09:30,545 DEBUG message:342 - message: '$GPGGA,040930.000,4516.7929,N,07550.9991,W,,07,1.1,133.2,M,-34.3,M,,0000*61'
23:09:30,545 DEBUG message:343 - sentenceId: 'GGA'
23:09:30,545 ERROR GPSNmeaDataProcessor:368 - ERORR: invalid checksum in NMEA message: $GPGGA,040930.000,4516.7929,N,07550.9991,W,,07,1.1,133.2,M,-34.3,M,,0000*61
23:09:30,545 ERROR GPSNmeaDataProcessor:369 - checksum of sentence: 97, calculated checksum: 65
23:09:30,668 DEBUG NMEA0183Sentence:62 - raw data='$GPGSA,A,3,32,22,12,01,11,31,25,,,,,,2.2,1.1,1.9*2C'
23:09:30,668 DEBUG message:342 - message: '$GPGSA,A,3,32,22,12,01,11,31,25,,,,,,2.2,1.1,1.9*2C'
23:09:30,668 DEBUG message:343 - sentenceId: 'GSA'
23:09:30,668 ERROR GPSNmeaDataProcessor:368 - ERORR: invalid checksum in NMEA message: $GPGSA,A,3,32,22,12,01,11,31,25,,,,,,2.2,1.1,1.9*2C
23:09:30,668 ERROR GPSNmeaDataProcessor:369 - checksum of sentence: 44, calculated checksum: 60
23:09:30,832 DEBUG NMEA0183Sentence:62 - raw data='$GPRMC,040930.000,A,4516.7929,N,07550.9991,W,0.00,355.12,271111,,,A*7B'
23:09:30,832 DEBUG message:342 - message: '$GPRMC,040930.000,A,4516.7929,N,07550.9991,W,0.00,355.12,271111,,,A*7B'
23:09:30,832 DEBUG message:343 - sentenceId: 'RMC'
23:09:30,832 DEBUG nmea:690 - RMC detected: $GPRMC,040930.000,A,4516.7929,N,07550.9991,W,0.00,355.12,271111,,,A*7B
23:09:30,832 DEBUG GPSGeneralDataProcessor:417 - fire event for key location oldvalue=GPSPosition[lat: 45.27988166666667, long:-75.849985] new=GPSPosition[lat: 45.27988166666667, long:-75.849985]
23:09:30,833 DEBUG GPSGeneralDataProcessor:417 - fire event for key speed oldvalue=0.0 new=0.0
23:09:31,549 DEBUG NMEA0183Sentence:62 - raw data='$PGGA,040931.000,4516.7929,N,07550.9991,W,1,07,1.1,133.2,M,-34.3,M,,0000*60'
23:09:31,549 DEBUG message:342 - message: '$PGGA,040931.000,4516.7929,N,07550.9991,W,1,07,1.1,133.2,M,-34.3,M,,0000*60'
23:09:31,549 DEBUG message:343 - sentenceId: 'GGA'
23:09:31,549 ERROR GPSNmeaDataProcessor:368 - ERORR: invalid checksum in NMEA message: $PGGA,040931.000,4516.7929,N,07550.9991,W,1,07,1.1,133.2,M,-34.3,M,,0000*60
23:09:31,549 ERROR GPSNmeaDataProcessor:369 - checksum of sentence: 96, calculated checksum: 32
23:09:31,668 DEBUG NMEA0183Sentence:62 - raw data='$GPGSA,A,3,32,22,12,01,11,31,25,,,,,,2.2,1.1,1.9*3C'
23:09:31,668 DEBUG message:342 - message: '$GPGSA,A,3,32,22,12,01,11,31,25,,,,,,2.2,1.1,1.9*3C'
23:09:31,668 DEBUG message:343 - sentenceId: 'GSA'
23:09:31,668 DEBUG nmea:654 - GSA detected: $GPGSA,A,3,32,22,12,01,11,31,25,,,,,,2.2,1.1,1.9*3C
23:09:31,668 DEBUG GPSGeneralDataProcessor:417 - fire event for key position_dop oldvalue=2.2 new=2.2
23:09:31,668 DEBUG GPSGeneralDataProcessor:417 - fire event for key horizontal_dop oldvalue=1.1 new=1.1
23:09:31,669 DEBUG GPSGeneralDataProcessor:417 - fire event for key vertical_dop oldvalue=1.9 new=1.9
23:09:31,669 DEBUG GPSGeneralDataProcessor:417 - fire event for key ids_satellites oldvalue=[Ljava.lang.Integer;@182153fe new=[Ljava.lang.Integer;@14eac7c8
23:09:31,669 DEBUG propertychange:1175 - property change event: ids_satellites=[Ljava.lang.Integer;@14eac7c8 from org.dinopolis.gpstool.gpsinput.nmea.GPSNmeaDataProcessor@65efb4be
23:09:31,669 DEBUG gpsdata:1240 - gps event: 'ids_satellites': old=[Ljava.lang.Integer;@182153fe new=[Ljava.lang.Integer;@14eac7c8
23:09:31,738 DEBUG propertychange:1175 - property change event: current_map_position.latitude=41.716102600097656 from org.dinopolis.util.resource.FileResources@6405ce40
23:09:31,739 DEBUG propertychange:1175 - property change event: current_map_position.longitude=-26.34143829345703 from org.dinopolis.util.resource.FileResources@6405ce40
23:09:31,835 DEBUG NMEA0183Sentence:62 - raw data='$GPRMC,040931.000,A,4516.729,N,07550.9991,W,0.0®l?fê?12,271101,,,A*7A'
23:09:31,835 DEBUG message:342 - message: '$GPRMC,040931.000,A,4516.729,N,07550.9991,W,0.0®l?fê?12,271101,,,A*7A'
23:09:31,835 DEBUG message:343 - sentenceId: 'RMC'
23:09:31,835 ERROR GPSNmeaDataProcessor:368 - ERORR: invalid checksum in NMEA message: $GPRMC,040931.000,A,4516.729,N,07550.9991,W,0.0®l?fê?12,271101,,,A*7A
23:09:31,835 ERROR GPSNmeaDataProcessor:369 - checksum of sentence: 122, calculated checksum: 127
23:09:32,505 DEBUG propertychange:1175 - property change event: current_map_position.latitude=41.965919494628906 from org.dinopolis.util.resource.FileResources@6405ce40
23:09:32,506 DEBUG propertychange:1175 - property change event: current_map_position.longitude=-67.97821044921875 from org.dinopolis.util.resource.FileResources@6405ce40
23:09:32,525 DEBUG MapInfo:356 - Image '/Users/francispapineau/.gpsylon/maps/map_000157.gif' loaded.
23:09:32,532 DEBUG MapInfo:356 - Image '/Users/francispapineau/.gpsylon/maps/map_000163.gif' loaded.
23:09:32,839 DEBUG NMEA0183Sentence:62 - raw data='$GPRMC,040932.000,A,4516.7929,N,07550.9991,W,0.00,355.12,271111,,,A*79'
23:09:32,839 DEBUG message:342 - message: '$GPRMC,040932.000,A,4516.7929,N,07550.9991,W,0.00,355.12,271111,,,A*79'
23:09:32,839 DEBUG message:343 - sentenceId: 'RMC'
23:09:32,839 DEBUG nmea:690 - RMC detected: $GPRMC,040932.000,A,4516.7929,N,07550.9991,W,0.00,355.12,271111,,,A*79
23:09:32,839 DEBUG GPSGeneralDataProcessor:417 - fire event for key location oldvalue=GPSPosition[lat: 45.27988166666667, long:-75.849985] new=GPSPosition[lat: 45.27988166666667, long:-75.849985]
23:09:32,839 DEBUG GPSGeneralDataProcessor:417 - fire event for key speed oldvalue=0.0 new=0.0
23:09:33,290 DEBUG propertychange:1175 - property change event: current_map_position.latitude=49.962501525878906 from org.dinopolis.util.resource.FileResources@6405ce40
23:09:33,291 DEBUG propertychange:1175 - property change event: current_map_position.longitude=-68.37286376953125 from org.dinopolis.util.resource.FileResources@6405ce40
23:09:33,547 DEBUG NMEA0183Sentence:62 - raw data='$GPGGA,040933.000,4516.7929,N,07550.9991,W,1,07,1.1,133.2,M,-34.3,M,,0000*62'
23:09:33,548 DEBUG message:342 - message: '$GPGGA,040933.000,4516.7929,N,07550.9991,W,1,07,1.1,133.2,M,-34.3,M,,0000*62'
23:09:33,548 DEBUG message:343 - sentenceId: 'GGA'
23:09:33,548 DEBUG nmea:602 - GGA detected: $GPGGA,040933.000,4516.7929,N,07550.9991,W,1,07,1.1,133.2,M,-34.3,M,,0000*62
23:09:33,548 DEBUG GPSGeneralDataProcessor:417 - fire event for key location oldvalue=GPSPosition[lat: 45.27988166666667, long:-75.849985] new=GPSPosition[lat: 45.27988166666667, long:-75.849985]
23:09:33,548 DEBUG GPSGeneralDataProcessor:417 - fire event for key number_satellites oldvalue=7 new=7
23:09:33,548 DEBUG GPSGeneralDataProcessor:417 - fire event for key horizontal_dop oldvalue=1.1 new=1.1
23:09:33,549 DEBUG GPSGeneralDataProcessor:417 - fire event for key altitude oldvalue=133.2 new=133.2
23:09:33,670 DEBUG NMEA0183Sentence:62 - raw data='$GPGSA,A,3,32,22,12,01,11,31,25,,,,,,2.2,1.1,1.9*3C'
23:09:33,671 DEBUG message:342 - message: '$GPGSA,A,3,32,22,12,01,11,31,25,,,,,,2.2,1.1,1.9*3C'
23:09:33,671 DEBUG message:343 - sentenceId: 'GSA'
23:09:33,671 DEBUG nmea:654 - GSA detected: $GPGSA,A,3,32,22,12,01,11,31,25,,,,,,2.2,1.1,1.9*3C
23:09:33,671 DEBUG GPSGeneralDataProcessor:417 - fire event for key position_dop oldvalue=2.2 new=2.2
23:09:33,671 DEBUG GPSGeneralDataProcessor:417 - fire event for key horizontal_dop oldvalue=1.1 new=1.1
23:09:33,671 DEBUG GPSGeneralDataProcessor:417 - fire event for key vertical_dop oldvalue=1.9 new=1.9
23:09:33,672 DEBUG GPSGeneralDataProcessor:417 - fire event for key ids_satellites oldvalue=[Ljava.lang.Integer;@14eac7c8 new=[Ljava.lang.Integer;@445ead9d
23:09:33,672 DEBUG propertychange:1175 - property change event: ids_satellites=[Ljava.lang.Integer;@445ead9d from org.dinopolis.gpstool.gpsinput.nmea.GPSNmeaDataProcessor@65efb4be
23:09:33,672 DEBUG gpsdata:1240 - gps event: 'ids_satellites': old=[Ljava.lang.Integer;@14eac7c8 new=[Ljava.lang.Integer;@445ead9d
23:09:33,825 DEBUG NMEA0183Sentence:62 - raw data='$GPGSV,3,1,11,14,70,063,,31,55,242,36,25,47,083,28,22,38,168,18*77'
23:09:33,826 DEBUG message:342 - message: '$GPGSV,3,1,11,14,70,063,,31,55,242,36,25,47,083,28,22,38,168,18*77'
23:09:33,826 DEBUG message:343 - sentenceId: 'GSV'
23:09:33,826 DEBUG nmea:736 - GSV detected: $GPGSV,3,1,11,14,70,063,,31,55,242,36,25,47,083,28,22,38,168,18*77
23:09:33,826 DEBUG nmea:749 - GSV-message in wrong order, ignoring it!
23:09:33,981 DEBUG NMEA0183Sentence:62 - raw data='$GPGSV,3,2,11,32,37,307,26,12,28,049,30,01,17,292,27,20,12,317,*75'
23:09:33,982 DEBUG message:342 - message: '$GPGSV,3,2,11,32,37,307,26,12,28,049,30,01,17,292,27,20,12,317,*75'
23:09:33,982 DEBUG message:343 - sentenceId: 'GSV'
23:09:33,982 DEBUG nmea:736 - GSV detected: $GPGSV,3,2,11,32,37,307,26,12,28,049,30,01,17,292,27,20,12,317,*75
23:09:33,982 DEBUG nmea:749 - GSV-message in wrong order, ignoring it!
23:09:34,108 DEBUG NMEA0183Sentence:62 - raw data='$GPGSV,3,3,11,30,11,190,20,11,05,273,26,18,01,151,*4A'
23:09:34,109 DEBUG message:342 - message: '$GPGSV,3,3,11,30,11,190,20,11,05,273,26,18,01,151,*4A'
23:09:34,109 DEBUG message:343 - sentenceId: 'GSV'
23:09:34,109 DEBUG nmea:736 - GSV detected: $GPGSV,3,3,11,30,11,190,20,11,05,273,26,18,01,151,*4A
23:09:34,109 DEBUG nmea:749 - GSV-message in wrong order, ignoring it!
23:09:34,272 DEBUG NMEA0183Sentence:62 - raw data='$GPRMC,040933.000,A,4516.7929,N,07550.9991,W,0.00,355.12,271111,,,A*78'
23:09:34,273 DEBUG message:342 - message: '$GPRMC,040933.000,A,4516.7929,N,07550.9991,W,0.00,355.12,271111,,,A*78'
23:09:34,273 DEBUG message:343 - sentenceId: 'RMC'
23:09:34,273 DEBUG nmea:690 - RMC detected: $GPRMC,040933.000,A,4516.7929,N,07550.9991,W,0.00,355.12,271111,,,A*78
23:09:34,273 DEBUG GPSGeneralDataProcessor:417 - fire event for key location oldvalue=GPSPosition[lat: 45.27988166666667, long:-75.849985] new=GPSPosition[lat: 45.27988166666667, long:-75.849985]
23:09:34,273 DEBUG GPSGeneralDataProcessor:417 - fire event for key speed oldvalue=0.0 new=0.0
23:09:34,547 DEBUG NMEA0183Sentence:62 - raw data='$GPGGA,040934.000,4516.7929,N,07550.9991,W,1,07,1.1,133.2,M,-34.3,M,,0000*65'
23:09:34,547 DEBUG message:342 - message: '$GPGGA,040934.000,4516.7929,N,07550.9991,W,1,07,1.1,133.2,M,-34.3,M,,0000*65'
23:09:34,547 DEBUG message:343 - sentenceId: 'GGA'
23:09:34,547 DEBUG nmea:602 - GGA detected: $GPGGA,040934.000,4516.7929,N,07550.9991,W,1,07,1.1,133.2,M,-34.3,M,,0000*65
23:09:34,547 DEBUG GPSGeneralDataProcessor:417 - fire event for key location oldvalue=GPSPosition[lat: 45.27988166666667, long:-75.849985] new=GPSPosition[lat: 45.27988166666667, long:-75.849985]
23:09:34,547 DEBUG GPSGeneralDataProcessor:417 - fire event for key number_satellites oldvalue=7 new=7
23:09:34,547 DEBUG GPSGeneralDataProcessor:417 - fire event for key horizontal_dop oldvalue=1.1 new=1.1
23:09:34,548 DEBUG GPSGeneralDataProcessor:417 - fire event for key altitude oldvalue=133.2 new=133.2
23:09:34,669 DEBUG NMEA0183Sentence:62 - raw data='$GPGSA,A,3,32,22,12,01,11,31,25,,,,,,2.2,1.1,1.9*3C'
23:09:34,670 DEBUG message:342 - message: '$GPGSA,A,3,32,22,12,01,11,31,25,,,,,,2.2,1.1,1.9*3C'
23:09:34,670 DEBUG message:343 - sentenceId: 'GSA'
23:09:34,670 DEBUG nmea:654 - GSA detected: $GPGSA,A,3,32,22,12,01,11,31,25,,,,,,2.2,1.1,1.9*3C
23:09:34,670 DEBUG GPSGeneralDataProcessor:417 - fire event for key position_dop oldvalue=2.2 new=2.2
23:09:34,670 DEBUG GPSGeneralDataProcessor:417 - fire event for key horizontal_dop oldvalue=1.1 new=1.1
23:09:34,670 DEBUG GPSGeneralDataProcessor:417 - fire event for key vertical_dop oldvalue=1.9 new=1.9
23:09:34,670 DEBUG GPSGeneralDataProcessor:417 - fire event for key ids_satellites oldvalue=[Ljava.lang.Integer;@445ead9d new=[Ljava.lang.Integer;@23d8417c
23:09:34,671 DEBUG propertychange:1175 - property change event: ids_satellites=[Ljava.lang.Integer;@23d8417c from org.dinopolis.gpstool.gpsinput.nmea.GPSNmeaDataProcessor@65efb4be
23:09:34,671 DEBUG gpsdata:1240 - gps event: 'ids_satellites': old=[Ljava.lang.Integer;@445ead9d new=[Ljava.lang.Integer;@23d8417c
23:09:34,833 DEBUG NMEA0183Sentence:62 - raw data='$GPRMC,040934.000,AX£Vf¾?g?9,N,07550.9991,W,0.00,355.12,271111,,,A*7F'
23:09:34,834 DEBUG message:342 - message: '$GPRMC,040934.000,AX£Vf¾?g?9,N,07550.9991,W,0.00,355.12,271111,,,A*7F'
23:09:34,834 DEBUG message:343 - sentenceId: 'RMC'
23:09:34,834 ERROR GPSNmeaDataProcessor:368 - ERORR: invalid checksum in NMEA message: $GPRMC,040934.000,AX£Vf¾?g?9,N,07550.9991,W,0.00,355.12,271111,,,A*7F
23:09:34,834 ERROR GPSNmeaDataProcessor:369 - checksum of sentence: 127, calculated checksum: -35
23:09:35,541 DEBUG NMEA0183Sentence:62 - raw data='$GPGGA,040935.000,4516.7929,N,07550.9991,W,1,07,1.1,133.2,M,-34.3,M,,0000*64'
23:09:35,542 DEBUG message:342 - message: '$GPGGA,040935.000,4516.7929,N,07550.9991,W,1,07,1.1,133.2,M,-34.3,M,,0000*64'
23:09:35,542 DEBUG message:343 - sentenceId: 'GGA'
23:09:35,542 DEBUG nmea:602 - GGA detected: $GPGGA,040935.000,4516.7929,N,07550.9991,W,1,07,1.1,133.2,M,-34.3,M,,0000*64
23:09:35,542 DEBUG GPSGeneralDataProcessor:417 - fire event for key location oldvalue=GPSPosition[lat: 45.27988166666667, long:-75.849985] new=GPSPosition[lat: 45.27988166666667, long:-75.849985]
23:09:35,542 DEBUG GPSGeneralDataProcessor:417 - fire event for key number_satellites oldvalue=7 new=7
