22:18:18,341 DEBUG plugin:1362 - URL of my class :jar:file:/Users/francispapineau/Desktop/ECGJAVa2GOOD/gpsylon_bin-0.5.3/gpsylon-0.5.3.jar!/org/dinopolis/gpstool/Gpsylon.class, dir of jar is /Users/francispapineau/Desktop/ECGJAVa2GOOD/gpsylon_bin-0.5.3
22:18:18,362 DEBUG plugin:1389 - Adding default plugin dir: /Users/francispapineau/Desktop/ECGJAVa2GOOD/gpsylon_bin-0.5.3/plugins
22:18:18,363 DEBUG plugin:1410 - Adding repository for plugin/service jars: /Users/francispapineau/.gpsylon/plugins
22:18:18,363 DEBUG plugin:1403 - Ignoring duplicate plugin/service repository: /Users/francispapineau/.gpsylon/plugins
22:18:18,392 DEBUG plugin:2949 - plugins for writing image detected: (java.lang.Object[2])org.dinopolis.gpstool.plugin.writerasterimage.WriteJpgImagePlugin@239a029e,org.dinopolis.gpstool.plugin.writerasterimage.WritePngImagePlugin@5421e554
22:18:18,397 DEBUG connection:1657 - connecting in gps mode 'serial' with gps protocol 'nmea'
22:18:18,398 DEBUG connection:1721 - connecting to nmea device /dev/cu.usbmodem26271
22:18:18,404 INFO  Gpsylon:1762 - Connecting to gpsdevice on port /dev/cu.usbmodem26271 at 9600 baud
22:18:18,405 DEBUG GPSSerialDevice:113 - try to connect to port '/dev/cu.usbmodem26271' using 9600 baud
22:18:18,427 DEBUG GPSSerialDevice:118 - setting speed and serial params to 8,N,1
22:18:18,428 DEBUG GPSNmeaDataProcessor:285 - start reading from GPSDevice...
22:18:18,428 DEBUG GPSNmeaDataProcessor:295 - inputstream: gnu.io.RXTXPort$SerialInputStream@1309de5b
22:18:18,432 DEBUG NMEA0183Sentence:62 - raw data='$GPGGA,021250.865,4516.7681,N,07550.9737,W,1,03,4.9,33.1,M,-24.3,M,,0000*54'
22:18:18,432 DEBUG message:342 - message: '$GPGGA,021250.865,4516.7681,N,07550.9737,W,1,03,4.9,33.1,M,-24.3,M,,0000*54'
22:18:18,433 DEBUG message:343 - sentenceId: 'GGA'
22:18:18,458 ERROR GPSNmeaDataProcessor:368 - ERORR: invalid checksum in NMEA message: $GPGGA,021250.865,4516.7681,N,07550.9737,W,1,03,4.9,33.1,M,-24.3,M,,0000*54
22:18:18,459 ERROR GPSNmeaDataProcessor:369 - checksum of sentence: 84, calculated checksum: 85
22:18:18,459 DEBUG NMEA0183Sentence:62 - raw data='$GPGSA,A,2,21,15,09,,,,,,,,,,5.8,4.9,3.2*3C'
22:18:18,460 DEBUG message:342 - message: '$GPGSA,A,2,21,15,09,,,,,,,,,,5.8,4.9,3.2*3C'
22:18:18,460 DEBUG message:343 - sentenceId: 'GSA'
22:18:18,460 DEBUG nmea:654 - GSA detected: $GPGSA,A,2,21,15,09,,,,,,,,,,5.8,4.9,3.2*3C
22:18:18,461 DEBUG GPSGeneralDataProcessor:417 - fire event for key position_dop oldvalue=null new=5.8
22:18:18,461 DEBUG propertychange:1175 - property change event: position_dop=5.8 from org.dinopolis.gpstool.gpsinput.nmea.GPSNmeaDataProcessor@48ea48be
22:18:18,462 DEBUG gpsdata:1240 - gps event: 'position_dop': old=null new=5.8
22:18:18,462 DEBUG GPSGeneralDataProcessor:417 - fire event for key horizontal_dop oldvalue=null new=4.9
22:18:18,462 DEBUG propertychange:1175 - property change event: horizontal_dop=4.9 from org.dinopolis.gpstool.gpsinput.nmea.GPSNmeaDataProcessor@48ea48be
22:18:18,463 DEBUG gpsdata:1240 - gps event: 'horizontal_dop': old=null new=4.9
22:18:18,463 DEBUG GPSGeneralDataProcessor:417 - fire event for key vertical_dop oldvalue=null new=3.2
22:18:18,463 DEBUG propertychange:1175 - property change event: vertical_dop=3.2 from org.dinopolis.gpstool.gpsinput.nmea.GPSNmeaDataProcessor@48ea48be
22:18:18,464 DEBUG gpsdata:1240 - gps event: 'vertical_dop': old=null new=3.2
22:18:18,464 DEBUG GPSGeneralDataProcessor:417 - fire event for key ids_satellites oldvalue=null new=[Ljava.lang.Integer;@d4dd758
22:18:18,464 DEBUG propertychange:1175 - property change event: ids_satellites=[Ljava.lang.Integer;@d4dd758 from org.dinopolis.gpstool.gpsinput.nmea.GPSNmeaDataProcessor@48ea48be
22:18:18,465 DEBUG gpsdata:1240 - gps event: 'ids_satellites': old=null new=[Ljava.lang.Integer;@d4dd758
22:18:18,465 DEBUG NMEA0183Sentence:62 - raw data='$GPGSV,3,1,11,18,81,338,,09,58,120,22,21,51,199,27,15,40,059,26*7F'
22:18:18,466 DEBUG message:342 - message: '$GPGSV,3,1,11,18,81,338,,09,58,120,22,21,51,199,27,15,40,059,26*7F'
22:18:18,466 DEBUG message:343 - sentenceId: 'GSV'
22:18:18,466 DEBUG nmea:736 - GSV detected: $GPGSV,3,1,11,18,81,338,,09,58,120,22,21,51,199,27,15,40,059,26*7F
22:18:18,468 DEBUG NMEA0183Sentence:62 - raw data='$GPGSV,3,2,11,22,40,296,,14,20,243,,19,10,316,,06,10,273,*7F'
22:18:18,468 DEBUG message:342 - message: '$GPGSV,3,2,11,22,40,296,,14,20,243,,19,10,316,,06,10,273,*7F'
22:18:18,468 DEBUG message:343 - sentenceId: 'GSV'
22:18:18,469 DEBUG nmea:736 - GSV detected: $GPGSV,3,2,11,22,40,296,,14,20,243,,19,10,316,,06,10,273,*7F
22:18:18,469 DEBUG NMEA0183Sentence:62 - raw data='$GPGSV,3,3,11,03,06,284,,26,03,058,,28,03,026,*45'
22:18:18,469 DEBUG message:342 - message: '$GPGSV,3,3,11,03,06,284,,26,03,058,,28,03,026,*45'
22:18:18,470 DEBUG message:343 - sentenceId: 'GSV'
22:18:18,470 DEBUG nmea:736 - GSV detected: $GPGSV,3,3,11,03,06,284,,26,03,058,,28,03,026,*45
22:18:18,471 DEBUG GPSGeneralDataProcessor:417 - fire event for key satellite_info oldvalue=null new=[Lorg.dinopolis.gpstool.gpsinput.SatelliteInfo;@2e61a907
22:18:18,472 DEBUG propertychange:1175 - property change event: satellite_info=[Lorg.dinopolis.gpstool.gpsinput.SatelliteInfo;@2e61a907 from org.dinopolis.gpstool.gpsinput.nmea.GPSNmeaDataProcessor@48ea48be
22:18:18,472 DEBUG gpsdata:1240 - gps event: 'satellite_info': old=null new=[Lorg.dinopolis.gpstool.gpsinput.SatelliteInfo;@2e61a907
22:18:18,473 DEBUG NMEA0183Sentence:62 - raw data='$GPRMC,021250.865,A,4516.7681,N,07550.9737,W,0.91,133.18,041111,,,A*74'
22:18:18,473 DEBUG message:342 - message: '$GPRMC,021250.865,A,4516.7681,N,07550.9737,W,0.91,133.18,041111,,,A*74'
22:18:18,473 DEBUG message:343 - sentenceId: 'RMC'
22:18:18,474 DEBUG nmea:690 - RMC detected: $GPRMC,021250.865,A,4516.7681,N,07550.9737,W,0.91,133.18,041111,,,A*74
22:18:18,475 DEBUG GPSGeneralDataProcessor:417 - fire event for key location oldvalue=null new=GPSPosition[lat: 45.279468333333334, long:-75.84956166666667]
22:18:18,476 DEBUG propertychange:1175 - property change event: location=GPSPosition[lat: 45.279468333333334, long:-75.84956166666667] from org.dinopolis.gpstool.gpsinput.nmea.GPSNmeaDataProcessor@48ea48be
22:18:18,476 DEBUG gpsdata:1228 - gps event: position old=null, new=LatLonPoint[lat=45.27947,lon=-75.84956]
22:18:18,476 DEBUG GPSGeneralDataProcessor:417 - fire event for key speed oldvalue=null new=1.6851852
22:18:18,476 DEBUG propertychange:1175 - property change event: speed=1.6851852 from org.dinopolis.gpstool.gpsinput.nmea.GPSNmeaDataProcessor@48ea48be
22:18:18,477 DEBUG gpsdata:1240 - gps event: 'speed': old=null new=1.6851852
22:18:18,477 DEBUG NMEA0183Sentence:62 - raw data='$GPGGA,021251.865,4516.7679,N,07550.9735,W,1,03,4.9,32.9,M,-34.3,M,,0000*59'
22:18:18,478 DEBUG message:342 - message: '$GPGGA,021251.865,4516.7679,N,07550.9735,W,1,03,4.9,32.9,M,-34.3,M,,0000*59'
22:18:18,478 DEBUG message:343 - sentenceId: 'GGA'
22:18:18,478 DEBUG nmea:602 - GGA detected: $GPGGA,021251.865,4516.7679,N,07550.9735,W,1,03,4.9,32.9,M,-34.3,M,,0000*59
22:18:18,478 DEBUG GPSGeneralDataProcessor:417 - fire event for key location oldvalue=GPSPosition[lat: 45.279468333333334, long:-75.84956166666667] new=GPSPosition[lat: 45.279465, long:-75.84955833333333]
22:18:18,479 DEBUG propertychange:1175 - property change event: location=GPSPosition[lat: 45.279465, long:-75.84955833333333] from org.dinopolis.gpstool.gpsinput.nmea.GPSNmeaDataProcessor@48ea48be
22:18:18,479 DEBUG gpsdata:1228 - gps event: position old=LatLonPoint[lat=45.27947,lon=-75.84956], new=LatLonPoint[lat=45.279465,lon=-75.849556]
22:18:18,479 DEBUG GPSGeneralDataProcessor:417 - fire event for key number_satellites oldvalue=null new=3
22:18:18,479 DEBUG propertychange:1175 - property change event: number_satellites=3 from org.dinopolis.gpstool.gpsinput.nmea.GPSNmeaDataProcessor@48ea48be
22:18:18,480 DEBUG gpsdata:1240 - gps event: 'number_satellites': old=null new=3
22:18:18,480 DEBUG GPSGeneralDataProcessor:417 - fire event for key horizontal_dop oldvalue=4.9 new=4.9
22:18:18,480 DEBUG GPSGeneralDataProcessor:417 - fire event for key altitude oldvalue=null new=32.9
22:18:18,480 DEBUG propertychange:1175 - property change event: altitude=32.9 from org.dinopolis.gpstool.gpsinput.nmea.GPSNmeaDataProcessor@48ea48be
22:18:18,481 DEBUG gpsdata:1240 - gps event: 'altitude': old=null new=32.9
22:18:18,482 DEBUG NMEA0183Sentence:62 - raw data='$GPGGA,021252.865,4516.7680,N,07550.9737,W,1,03,4.9,33.3,M,-34.3,M,,0000*55'
22:18:18,482 DEBUG message:342 - message: '$GPGGA,021252.865,4516.7680,N,07550.9737,W,1,03,4.9,33.3,M,-34.3,M,,0000*55'
22:18:18,483 DEBUG message:343 - sentenceId: 'GGA'
22:18:18,483 DEBUG nmea:602 - GGA detected: $GPGGA,021252.865,4516.7680,N,07550.9737,W,1,03,4.9,33.3,M,-34.3,M,,0000*55
22:18:18,483 DEBUG GPSGeneralDataProcessor:417 - fire event for key location oldvalue=GPSPosition[lat: 45.279465, long:-75.84955833333333] new=GPSPosition[lat: 45.279466666666664, long:-75.84956166666667]
22:18:18,483 DEBUG propertychange:1175 - property change event: location=GPSPosition[lat: 45.279466666666664, long:-75.84956166666667] from org.dinopolis.gpstool.gpsinput.nmea.GPSNmeaDataProcessor@48ea48be
22:18:18,484 DEBUG gpsdata:1228 - gps event: position old=LatLonPoint[lat=45.279465,lon=-75.849556], new=LatLonPoint[lat=45.27947,lon=-75.84956]
22:18:18,484 DEBUG GPSGeneralDataProcessor:417 - fire event for key number_satellites oldvalue=3 new=3
22:18:18,484 DEBUG GPSGeneralDataProcessor:417 - fire event for key horizontal_dop oldvalue=4.9 new=4.9
22:18:18,484 DEBUG GPSGeneralDataProcessor:417 - fire event for key altitude oldvalue=32.9 new=33.3
22:18:18,485 DEBUG propertychange:1175 - property change event: altitude=33.3 from org.dinopolis.gpstool.gpsinput.nmea.GPSNmeaDataProcessor@48ea48be
22:18:18,485 DEBUG gpsdata:1240 - gps event: 'altitude': old=32.9 new=33.3
22:18:18,485 DEBUG NMEA0183Sentence:62 - raw data='$GPGSA,A,2,21,15,09,,,,,,,,,,5.8,4.9,3.2*3C'
22:18:18,486 DEBUG message:342 - message: '$GPGSA,A,2,21,15,09,,,,,,,,,,5.8,4.9,3.2*3C'
22:18:18,486 DEBUG message:343 - sentenceId: 'GSA'
22:18:18,486 DEBUG nmea:654 - GSA detected: $GPGSA,A,2,21,15,09,,,,,,,,,,5.8,4.9,3.2*3C
22:18:18,486 DEBUG GPSGeneralDataProcessor:417 - fire event for key position_dop oldvalue=5.8 new=5.8
22:18:18,487 DEBUG GPSGeneralDataProcessor:417 - fire event for key horizontal_dop oldvalue=4.9 new=4.9
22:18:18,487 DEBUG GPSGeneralDataProcessor:417 - fire event for key vertical_dop oldvalue=3.2 new=3.2
22:18:18,487 DEBUG GPSGeneralDataProcessor:417 - fire event for key ids_satellites oldvalue=[Ljava.lang.Integer;@d4dd758 new=[Ljava.lang.Integer;@565c7f6
22:18:18,487 DEBUG propertychange:1175 - property change event: ids_satellites=[Ljava.lang.Integer;@565c7f6 from org.dinopolis.gpstool.gpsinput.nmea.GPSNmeaDataProcessor@48ea48be
22:18:18,488 DEBUG gpsdata:1240 - gps event: 'ids_satellites': old=[Ljava.lang.Integer;@d4dd758 new=[Ljava.lang.Integer;@565c7f6
22:18:18,488 DEBUG NMEA0183Sentence:62 - raw data='$GPRMC,0212j?¾fV®,4e?516.7680,N,07550.9737,W,0.15,298.44,041111,,,A*70'
22:18:18,488 DEBUG message:342 - message: '$GPRMC,0212j?¾fV®,4e?516.7680,N,07550.9737,W,0.15,298.44,041111,,,A*70'
22:18:18,489 DEBUG message:343 - sentenceId: 'RMC'
22:18:18,489 ERROR GPSNmeaDataProcessor:368 - ERORR: invalid checksum in NMEA message: $GPRMC,0212j?¾fV®,4e?516.7680,N,07550.9737,W,0.15,298.44,041111,,,A*70
22:18:18,489 ERROR GPSNmeaDataProcessor:369 - checksum of sentence: 112, calculated checksum: 21
22:18:18,490 DEBUG NMEA0183Sentence:62 - raw data='$GPRMC,021253.866,A,4516.7685,N,07550.9745,W,0.24,294.28,041111,,,A*76'
22:18:18,490 DEBUG message:342 - message: '$GPRMC,021253.866,A,4516.7685,N,07550.9745,W,0.24,294.28,041111,,,A*76'
22:18:18,491 DEBUG message:343 - sentenceId: 'RMC'
22:18:18,491 DEBUG nmea:690 - RMC detected: $GPRMC,021253.866,A,4516.7685,N,07550.9745,W,0.24,294.28,041111,,,A*76
22:18:18,491 DEBUG GPSGeneralDataProcessor:417 - fire event for key location oldvalue=GPSPosition[lat: 45.279466666666664, long:-75.84956166666667] new=GPSPosition[lat: 45.279475, long:-75.849575]
22:18:18,492 DEBUG propertychange:1175 - property change event: location=GPSPosition[lat: 45.279475, long:-75.849575] from org.dinopolis.gpstool.gpsinput.nmea.GPSNmeaDataProcessor@48ea48be
22:18:18,492 DEBUG gpsdata:1228 - gps event: position old=LatLonPoint[lat=45.27947,lon=-75.84956], new=LatLonPoint[lat=45.279476,lon=-75.84957]
22:18:18,492 DEBUG GPSGeneralDataProcessor:417 - fire event for key speed oldvalue=1.6851852 new=0.44444442
22:18:18,495 DEBUG propertychange:1175 - property change event: speed=0.44444442 from org.dinopolis.gpstool.gpsinput.nmea.GPSNmeaDataProcessor@48ea48be
22:18:18,496 DEBUG gpsdata:1240 - gps event: 'speed': old=1.6851852 new=0.44444442
22:18:18,496 DEBUG NMEA0183Sentence:62 - raw data='$GPGGA,021254.866,4516.7687,N,07550.9750,W,1,03,4.9,31.7,M,-34.3,M,,0000*50'
22:18:18,497 DEBUG message:342 - message: '$GPGGA,021254.866,4516.7687,N,07550.9750,W,1,03,4.9,31.7,M,-34.3,M,,0000*50'
22:18:18,497 DEBUG message:343 - sentenceId: 'GGA'
22:18:18,497 DEBUG nmea:602 - GGA detected: $GPGGA,021254.866,4516.7687,N,07550.9750,W,1,03,4.9,31.7,M,-34.3,M,,0000*50
22:18:18,500 DEBUG GPSGeneralDataProcessor:417 - fire event for key location oldvalue=GPSPosition[lat: 45.279475, long:-75.849575] new=GPSPosition[lat: 45.27947833333333, long:-75.84958333333333]
22:18:18,500 DEBUG propertychange:1175 - property change event: location=GPSPosition[lat: 45.27947833333333, long:-75.84958333333333] from org.dinopolis.gpstool.gpsinput.nmea.GPSNmeaDataProcessor@48ea48be
22:18:18,500 DEBUG gpsdata:1228 - gps event: position old=LatLonPoint[lat=45.279476,lon=-75.84957], new=LatLonPoint[lat=45.27948,lon=-75.84959]
22:18:18,501 DEBUG GPSGeneralDataProcessor:417 - fire event for key number_satellites oldvalue=3 new=3
22:18:18,501 DEBUG GPSGeneralDataProcessor:417 - fire event for key horizontal_dop oldvalue=4.9 new=4.9
22:18:18,501 DEBUG GPSGeneralDataProcessor:417 - fire event for key altitude oldvalue=33.3 new=31.7
22:18:18,501 DEBUG propertychange:1175 - property change event: altitude=31.7 from org.dinopolis.gpstool.gpsinput.nmea.GPSNmeaDataProcessor@48ea48be
22:18:18,502 DEBUG gpsdata:1240 - gps event: 'altitude': old=33.3 new=31.7
22:18:18,502 DEBUG NMEA0183Sentence:62 - raw data='$GPGSA,A,2,21,15,09,,,,,(,,,,5.8,4.9,3.2*3C'
22:18:18,502 DEBUG message:342 - message: '$GPGSA,A,2,21,15,09,,,,,(,,,,5.8,4.9,3.2*3C'
22:18:18,502 DEBUG message:343 - sentenceId: 'GSA'
22:18:18,503 ERROR GPSNmeaDataProcessor:368 - ERORR: invalid checksum in NMEA message: $GPGSA,A,2,21,15,09,,,,,(,,,,5.8,4.9,3.2*3C
22:18:18,503 ERROR GPSNmeaDataProcessor:369 - checksum of sentence: 60, calculated checksum: 56
22:18:18,503 DEBUG NMEA0183Sentence:62 - raw data='$GPRMC,021254.866,A,4516.7687,N,07550.9750,W,0.08,154.93,041111,,,A*76'
22:18:18,504 DEBUG message:342 - message: '$GPRMC,021254.866,A,4516.7687,N,07550.9750,W,0.08,154.93,041111,,,A*76'
22:18:18,504 DEBUG message:343 - sentenceId: 'RMC'
22:18:18,504 DEBUG nmea:690 - RMC detected: $GPRMC,021254.866,A,4516.7687,N,07550.9750,W,0.08,154.93,041111,,,A*76
22:18:18,504 DEBUG GPSGeneralDataProcessor:417 - fire event for key location oldvalue=GPSPosition[lat: 45.27947833333333, long:-75.84958333333333] new=GPSPosition[lat: 45.27947833333333, long:-75.84958333333333]
22:18:18,504 DEBUG GPSGeneralDataProcessor:417 - fire event for key speed oldvalue=0.44444442 new=0.14814813
22:18:18,505 DEBUG propertychange:1175 - property change event: speed=0.14814813 from org.dinopolis.gpstool.gpsinput.nmea.GPSNmeaDataProcessor@48ea48be
22:18:18,505 DEBUG gpsdata:1240 - gps event: 'speed': old=0.44444442 new=0.14814813
22:18:18,506 DEBUG NMEA0183Sentence:62 - raw data='$GPGGA,021255.866,4516.7687,N,07550.9751,W,1,03,4.9,32.0,M,-34.3,M,,0000*54'
22:18:18,506 DEBUG message:342 - message: '$GPGGA,021255.866,4516.7687,N,07550.9751,W,1,03,4.9,32.0,M,-34.3,M,,0000*54'
22:18:18,506 DEBUG message:343 - sentenceId: 'GGA'
22:18:18,506 DEBUG nmea:602 - GGA detected: $GPGGA,021255.866,4516.7687,N,07550.9751,W,1,03,4.9,32.0,M,-34.3,M,,0000*54
22:18:18,507 DEBUG GPSGeneralDataProcessor:417 - fire event for key location oldvalue=GPSPosition[lat: 45.27947833333333, long:-75.84958333333333] new=GPSPosition[lat: 45.27947833333333, long:-75.849585]
22:18:18,507 DEBUG propertychange:1175 - property change event: location=GPSPosition[lat: 45.27947833333333, long:-75.849585] from org.dinopolis.gpstool.gpsinput.nmea.GPSNmeaDataProcessor@48ea48be
22:18:18,507 DEBUG gpsdata:1228 - gps event: position old=LatLonPoint[lat=45.27948,lon=-75.84959], new=LatLonPoint[lat=45.27948,lon=-75.84959]
22:18:18,507 DEBUG GPSGeneralDataProcessor:417 - fire event for key number_satellites oldvalue=3 new=3
22:18:18,508 DEBUG GPSGeneralDataProcessor:417 - fire event for key horizontal_dop oldvalue=4.9 new=4.9
22:18:18,509 DEBUG GPSGeneralDataProcessor:417 - fire event for key altitude oldvalue=31.7 new=32.0
22:18:18,509 DEBUG propertychange:1175 - property change event: altitude=32.0 from org.dinopolis.gpstool.gpsinput.nmea.GPSNmeaDataProcessor@48ea48be
22:18:18,509 DEBUG gpsdata:1240 - gps event: 'altitude': old=31.7 new=32.0
22:18:18,510 DEBUG NMEA0183Sentence:62 - raw data='$GPGSA,A,2,21,15,09,,,,,,,,,,5.8,4.9,3.2*3C'
22:18:18,510 DEBUG message:342 - message: '$GPGSA,A,2,21,15,09,,,,,,,,,,5.8,4.9,3.2*3C'
22:18:18,510 DEBUG message:343 - sentenceId: 'GSA'
22:18:18,510 DEBUG nmea:654 - GSA detected: $GPGSA,A,2,21,15,09,,,,,,,,,,5.8,4.9,3.2*3C
22:18:18,511 DEBUG GPSGeneralDataProcessor:417 - fire event for key position_dop oldvalue=5.8 new=5.8
22:18:18,511 DEBUG GPSGeneralDataProcessor:417 - fire event for key horizontal_dop oldvalue=4.9 new=4.9
22:18:18,511 DEBUG GPSGeneralDataProcessor:417 - fire event for key vertical_dop oldvalue=3.2 new=3.2
22:18:18,511 DEBUG GPSGeneralDataProcessor:417 - fire event for key ids_satellites oldvalue=[Ljava.lang.Integer;@565c7f6 new=[Ljava.lang.Integer;@5d2aea3e
22:18:18,511 DEBUG propertychange:1175 - property change event: ids_satellites=[Ljava.lang.Integer;@5d2aea3e from org.dinopolis.gpstool.gpsinput.nmea.GPSNmeaDataProcessor@48ea48be
22:18:18,512 DEBUG gpsdata:1240 - gps event: 'ids_satellites': old=[Ljava.lang.Integer;@565c7f6 new=[Ljava.lang.Integer;@5d2aea3e
22:18:18,512 DEBUG NMEA0183Sentence:62 - raw data='$GPGSV,3,1,11,18,81,338,,09,58,120,22,21,51,19,27,15,40,059,26*7F'
22:18:18,512 DEBUG message:342 - message: '$GPGSV,3,1,11,18,81,338,,09,58,120,22,21,51,19,27,15,40,059,26*7F'
22:18:18,512 DEBUG message:343 - sentenceId: 'GSV'
22:18:18,513 ERROR GPSNmeaDataProcessor:368 - ERORR: invalid checksum in NMEA message: $GPGSV,3,1,11,18,81,338,,09,58,120,22,21,51,19,27,15,40,059,26*7F
22:18:18,516 ERROR GPSNmeaDataProcessor:369 - checksum of sentence: 127, calculated checksum: 95
22:18:18,517 DEBUG NMEA0183Sentence:62 - raw data='$GPGSV,3,2,11,22,40,296,,14,20,243,,19,10,316,,06,10,273,*7F'
22:18:18,517 DEBUG message:342 - message: '$GPGSV,3,2,11,22,40,296,,14,20,243,,19,10,316,,06,10,273,*7F'
22:18:18,517 DEBUG message:343 - sentenceId: 'GSV'
22:18:18,517 DEBUG nmea:736 - GSV detected: $GPGSV,3,2,11,22,40,296,,14,20,243,,19,10,316,,06,10,273,*7F
22:18:18,517 DEBUG nmea:749 - GSV-message in wrong order, ignoring it!
22:18:18,518 DEBUG NMEA0183Sentence:62 - raw data='$GPGSV,3,3,11,03,06,284,,26,03,058,,28,03,026,*45'
22:18:18,518 DEBUG message:342 - message: '$GPGSV,3,3,11,03,06,284,,26,03,058,,28,03,026,*45'
22:18:18,518 DEBUG message:343 - sentenceId: 'GSV'
22:18:18,518 DEBUG nmea:736 - GSV detected: $GPGSV,3,3,11,03,06,284,,26,03,058,,28,03,026,*45
22:18:18,518 DEBUG nmea:749 - GSV-message in wrong order, ignoring it!
22:18:18,519 DEBUG NMEA0183Sentence:62 - raw data='$GPRMC,021255.866,A,4516.7687,N,07550.9751,W,0.31,304.25,041111,,,A*76'
22:18:18,519 DEBUG message:342 - message: '$GPRMC,021255.866,A,4516.7687,N,07550.9751,W,0.31,304.25,041111,,,A*76'
22:18:18,519 DEBUG message:343 - sentenceId: 'RMC'
22:18:18,519 DEBUG nmea:690 - RMC detected: $GPRMC,021255.866,A,4516.7687,N,07550.9751,W,0.31,304.25,041111,,,A*76
22:18:18,520 DEBUG GPSGeneralDataProcessor:417 - fire event for key location oldvalue=GPSPosition[lat: 45.27947833333333, long:-75.849585] new=GPSPosition[lat: 45.27947833333333, long:-75.849585]
22:18:18,520 DEBUG GPSGeneralDataProcessor:417 - fire event for key speed oldvalue=0.14814813 new=0.57407403
22:18:18,520 DEBUG propertychange:1175 - property change event: speed=0.57407403 from org.dinopolis.gpstool.gpsinput.nmea.GPSNmeaDataProcessor@48ea48be
22:18:18,520 DEBUG gpsdata:1240 - gps event: 'speed': old=0.14814813 new=0.57407403
22:18:18,528 DEBUG NMEA0183Sentence:62 - raw data='$GPGGA,021256.866,4516.7679,N,07550.9739,W,1,03,3Y3è?2.7,M,-34.3,M,,0000*5F'
22:18:18,528 DEBUG message:342 - message: '$GPGGA,021256.866,4516.7679,N,07550.9739,W,1,03,3Y3è?2.7,M,-34.3,M,,0000*5F'
22:18:18,528 DEBUG message:343 - sentenceId: 'GGA'
22:18:18,528 ERROR GPSNmeaDataProcessor:368 - ERORR: invalid checksum in NMEA message: $GPGGA,021256.866,4516.7679,N,07550.9739,W,1,03,3Y3è?2.7,M,-34.3,M,,0000*5F
22:18:18,528 ERROR GPSNmeaDataProcessor:369 - checksum of sentence: 95, calculated checksum: 104
22:18:18,529 DEBUG NMEA0183Sentence:62 - raw data='$GPGSA,A,2,21,15,09,,,,,,,,,,5.8,4.9,3.2*3C'
22:18:18,529 DEBUG message:342 - message: '$GPGSA,A,2,21,15,09,,,,,,,,,,5.8,4.9,3.2*3C'
22:18:18,529 DEBUG message:343 - sentenceId: 'GSA'
22:18:18,531 DEBUG nmea:654 - GSA detected: $GPGSA,A,2,21,15,09,,,,,,,,,,5.8,4.9,3.2*3C
22:18:18,531 DEBUG GPSGeneralDataProcessor:417 - fire event for key position_dop oldvalue=5.8 new=5.8
22:18:18,535 DEBUG GPSGeneralDataProcessor:417 - fire event for key horizontal_dop oldvalue=4.9 new=4.9
22:18:18,535 DEBUG GPSGeneralDataProcessor:417 - fire event for key vertical_dop oldvalue=3.2 new=3.2
22:18:18,535 DEBUG GPSGeneralDataProcessor:417 - fire event for key ids_satellites oldvalue=[Ljava.lang.Integer;@5d2aea3e new=[Ljava.lang.Integer;@2a8ddc4c
22:18:18,535 DEBUG propertychange:1175 - property change event: ids_satellites=[Ljava.lang.Integer;@2a8ddc4c from org.dinopolis.gpstool.gpsinput.nmea.GPSNmeaDataProcessor@48ea48be
22:18:18,535 DEBUG gpsdata:1240 - gps event: 'ids_satellites': old=[Ljava.lang.Integer;@5d2aea3e new=[Ljava.lang.Integer;@2a8ddc4c
22:18:18,543 DEBUG NMEA0183Sentence:62 - raw data='$GPRMC,021256.866,A,4516.76?g?N,07550.9739,W,1.14,134.37,041111,,,A*7E'
22:18:18,544 DEBUG message:342 - message: '$GPRMC,021256.866,A,4516.76?g?N,07550.9739,W,1.14,134.37,041111,,,A*7E'
22:18:18,544 DEBUG message:343 - sentenceId: 'RMC'
22:18:18,544 ERROR GPSNmeaDataProcessor:368 - ERORR: invalid checksum in NMEA message: $GPRMC,021256.866,A,4516.76?g?N,07550.9739,W,1.14,134.37,041111,,,A*7E
22:18:18,544 ERROR GPSNmeaDataProcessor:369 - checksum of sentence: 126, calculated checksum: 30
22:18:18,546 DEBUG NMEA0183Sentence:62 - raw data='$GPGGA,021257.862,4516.7673,N,07550.9730,W,1,03,4.9,33.6,M,-34.3$M,,0000*59'
22:18:18,547 DEBUG message:342 - message: '$GPGGA,021257.862,4516.7673,N,07550.9730,W,1,03,4.9,33.6,M,-34.3$M,,0000*59'
22:18:18,547 DEBUG message:343 - sentenceId: 'GGA'
22:18:18,547 ERROR GPSNmeaDataProcessor:368 - ERORR: invalid checksum in NMEA message: $GPGGA,021257.862,4516.7673,N,07550.9730,W,1,03,4.9,33.6,M,-34.3$M,,0000*59
22:18:18,547 ERROR GPSNmeaDataProcessor:369 - checksum of sentence: 89, calculated checksum: 81
22:18:18,548 DEBUG NMEA0183Sentence:62 - raw data='$GPGSA,A,2,21,15,09,,,,,,,,,,5.8,4.9,3.2*3C'
22:18:18,548 DEBUG message:342 - message: '$GPGSA,A,2,21,15,09,,,,,,,,,,5.8,4.9,3.2*3C'
22:18:18,548 DEBUG message:343 - sentenceId: 'GSA'
22:18:18,548 DEBUG nmea:654 - GSA detected: $GPGSA,A,2,21,15,09,,,,,,,,,,5.8,4.9,3.2*3C
22:18:18,548 DEBUG GPSGeneralDataProcessor:417 - fire event for key position_dop oldvalue=5.8 new=5.8
22:18:18,548 DEBUG GPSGeneralDataProcessor:417 - fire event for key horizontal_dop oldvalue=4.9 new=4.9
22:18:18,549 DEBUG GPSGeneralDataProcessor:417 - fire event for key vertical_dop oldvalue=3.2 new=3.2
22:18:18,549 DEBUG GPSGeneralDataProcessor:417 - fire event for key ids_satellites oldvalue=[Ljava.lang.Integer;@2a8ddc4c new=[Ljava.lang.Integer;@477a1767
22:18:18,549 DEBUG propertychange:1175 - property change event: ids_satellites=[Ljava.lang.Integer;@477a1767 from org.dinopolis.gpstool.gpsinput.nmea.GPSNmeaDataProcessor@48ea48be
22:18:18,566 DEBUG gpsdata:1240 - gps event: 'ids_satellites': old=[Ljava.lang.Integer;@2a8ddc4c new=[Ljava.lang.Integer;@477a1767
22:18:18,566 DEBUG NMEA0183Sentence:62 - raw data='$GPRMC,021257.p?&®,4e?516.7673,N,07550.9730,W,1.07,132.79,041111,,,A*76'
22:18:18,582 DEBUG message:342 - message: '$GPRMC,021257.p?&®,4e?516.7673,N,07550.9730,W,1.07,132.79,041111,,,A*76'
22:18:18,582 DEBUG message:343 - sentenceId: 'RMC'
22:18:18,582 ERROR GPSNmeaDataProcessor:368 - ERORR: invalid checksum in NMEA message: $GPRMC,021257.p?&®,4e?516.7673,N,07550.9730,W,1.07,132.79,041111,,,A*76
22:18:18,582 ERROR GPSNmeaDataProcessor:369 - checksum of sentence: 118, calculated checksum: -5
22:18:18,583 DEBUG NMEA0183Sentence:62 - raw data='$GPGGA,021258.862,4516.7677,N,07550.9736,W,1,03,4.9,33.6,M,-34.3,M,,0000*54'
22:18:18,583 DEBUG message:342 - message: '$GPGGA,021258.862,4516.7677,N,07550.9736,W,1,03,4.9,33.6,M,-34.3,M,,0000*54'
22:18:18,583 DEBUG message:343 - sentenceId: 'GGA'
22:18:18,583 DEBUG nmea:602 - GGA detected: $GPGGA,021258.862,4516.7677,N,07550.9736,W,1,03,4.9,33.6,M,-34.3,M,,0000*54
22:18:18,583 DEBUG GPSGeneralDataProcessor:417 - fire event for key location oldvalue=GPSPosition[lat: 45.27947833333333, long:-75.849585] new=GPSPosition[lat: 45.27946166666667, long:-75.84956]
22:18:18,584 DEBUG propertychange:1175 - property change event: location=GPSPosition[lat: 45.27946166666667, long:-75.84956] from org.dinopolis.gpstool.gpsinput.nmea.GPSNmeaDataProcessor@48ea48be
22:18:18,584 DEBUG gpsdata:1228 - gps event: position old=LatLonPoint[lat=45.27948,lon=-75.84959], new=LatLonPoint[lat=45.27946,lon=-75.84956]
22:18:18,584 DEBUG GPSGeneralDataProcessor:417 - fire event for key number_satellites oldvalue=3 new=3
22:18:18,584 DEBUG GPSGeneralDataProcessor:417 - fire event for key horizontal_dop oldvalue=4.9 new=4.9
22:18:18,584 DEBUG GPSGeneralDataProcessor:417 - fire event for key altitude oldvalue=32.0 new=33.6
22:18:18,584 DEBUG propertychange:1175 - property change event: altitude=33.6 from org.dinopolis.gpstool.gpsinput.nmea.GPSNmeaDataProcessor@48ea48be
22:18:18,585 DEBUG gpsdata:1240 - gps event: 'altitude': old=32.0 new=33.6
22:18:18,585 DEBUG NMEA0183Sentence:62 - raw data='$GPGSA,A,2,21,15,09,,,,,,,,,,5.8,4.9,3.2*3C'
22:18:18,585 DEBUG message:342 - message: '$GPGSA,A,2,21,15,09,,,,,,,,,,5.8,4.9,3.2*3C'
22:18:18,585 DEBUG message:343 - sentenceId: 'GSA'
22:18:18,585 DEBUG nmea:654 - GSA detected: $GPGSA,A,2,21,15,09,,,,,,,,,,5.8,4.9,3.2*3C
22:18:18,585 DEBUG GPSGeneralDataProcessor:417 - fire event for key position_dop oldvalue=5.8 new=5.8
22:18:18,586 DEBUG GPSGeneralDataProcessor:417 - fire event for key horizontal_dop oldvalue=4.9 new=4.9
22:18:18,586 DEBUG GPSGeneralDataProcessor:417 - fire event for key vertical_dop oldvalue=3.2 new=3.2
22:18:18,586 DEBUG GPSGeneralDataProcessor:417 - fire event for key ids_satellites oldvalue=[Ljava.lang.Integer;@477a1767 new=[Ljava.lang.Integer;@48fd918a
22:18:18,586 DEBUG propertychange:1175 - property change event: ids_satellites=[Ljava.lang.Integer;@48fd918a from org.dinopolis.gpstool.gpsinput.nmea.GPSNmeaDataProcessor@48ea48be
22:18:18,586 DEBUG gpsdata:1240 - gps event: 'ids_satellites': old=[Ljava.lang.Integer;@477a1767 new=[Ljava.lang.Integer;@48fd918a
22:18:18,587 DEBUG NMEA0183Sentence:62 - raw data='$GPRMC,021258.862,A,4516.7677,N,07550.9736,W,0.46,307.91,041111,,,A*7D'
22:18:18,587 DEBUG message:342 - message: '$GPRMC,021258.862,A,4516.7677,N,07550.9736,W,0.46,307.91,041111,,,A*7D'
22:18:18,587 DEBUG message:343 - sentenceId: 'RMC'
22:18:18,587 DEBUG nmea:690 - RMC detected: $GPRMC,021258.862,A,4516.7677,N,07550.9736,W,0.46,307.91,041111,,,A*7D
22:18:18,587 DEBUG GPSGeneralDataProcessor:417 - fire event for key location oldvalue=GPSPosition[lat: 45.27946166666667, long:-75.84956] new=GPSPosition[lat: 45.27946166666667, long:-75.84956]
22:18:18,587 DEBUG GPSGeneralDataProcessor:417 - fire event for key speed oldvalue=0.57407403 new=0.8518518
22:18:18,588 DEBUG propertychange:1175 - property change event: speed=0.8518518 from org.dinopolis.gpstool.gpsinput.nmea.GPSNmeaDataProcessor@48ea48be
22:18:18,588 DEBUG gpsdata:1240 - gps event: 'speed': old=0.57407403 new=0.8518518
22:18:18,589 DEBUG NMEA0183Sentence:62 - raw data='$GPRMC,021259.866,A,4516.7682,N,07550.9746,W,0.96,309.45,041111,,,A*7F'
22:18:18,589 DEBUG message:342 - message: '$GPRMC,021259.866,A,4516.7682,N,07550.9746,W,0.96,309.45,041111,,,A*7F'
22:18:18,589 DEBUG message:343 - sentenceId: 'RMC'
22:18:18,589 DEBUG nmea:690 - RMC detected: $GPRMC,021259.866,A,4516.7682,N,07550.9746,W,0.96,309.45,041111,,,A*7F
22:18:18,589 DEBUG GPSGeneralDataProcessor:417 - fire event for key location oldvalue=GPSPosition[lat: 45.27946166666667, long:-75.84956] new=GPSPosition[lat: 45.27947, long:-75.84957666666666]
22:18:18,590 DEBUG propertychange:1175 - property change event: location=GPSPosition[lat: 45.27947, long:-75.84957666666666] from org.dinopolis.gpstool.gpsinput.nmea.GPSNmeaDataProcessor@48ea48be
22:18:18,590 DEBUG gpsdata:1228 - gps event: position old=LatLonPoint[lat=45.27946,lon=-75.84956], new=LatLonPoint[lat=45.27947,lon=-75.84958]
22:18:18,590 DEBUG GPSGeneralDataProcessor:417 - fire event for key speed oldvalue=0.8518518 new=1.7777777
22:18:18,590 DEBUG propertychange:1175 - property change event: speed=1.7777777 from org.dinopolis.gpstool.gpsinput.nmea.GPSNmeaDataProcessor@48ea48be
22:18:18,590 DEBUG gpsdata:1240 - gps event: 'speed': old=0.8518518 new=1.7777777
22:18:18,591 DEBUG NMEA0183Sentence:62 - raw data='$GPGGA,021300.866,4516.7684,N,07550.9749,W,1,03,4.9,33.0,M,-34.3,M,,0000*5E'
22:18:18,591 DEBUG message:342 - message: '$GPGGA,021300.866,4516.7684,N,07550.9749,W,1,03,4.9,33.0,M,-34.3,M,,0000*5E'
22:18:18,591 DEBUG message:343 - sentenceId: 'GGA'
22:18:18,591 DEBUG nmea:602 - GGA detected: $GPGGA,021300.866,4516.7684,N,07550.9749,W,1,03,4.9,33.0,M,-34.3,M,,0000*5E
22:18:18,591 DEBUG GPSGeneralDataProcessor:417 - fire event for key location oldvalue=GPSPosition[lat: 45.27947, long:-75.84957666666666] new=GPSPosition[lat: 45.279473333333335, long:-75.84958166666667]
22:18:18,591 DEBUG propertychange:1175 - property change event: location=GPSPosition[lat: 45.279473333333335, long:-75.84958166666667] from org.dinopolis.gpstool.gpsinput.nmea.GPSNmeaDataProcessor@48ea48be
22:18:18,591 DEBUG gpsdata:1228 - gps event: position old=LatLonPoint[lat=45.27947,lon=-75.84958], new=LatLonPoint[lat=45.279472,lon=-75.84958]
22:18:18,592 DEBUG GPSGeneralDataProcessor:417 - fire event for key number_satellites oldvalue=3 new=3
22:18:18,592 DEBUG GPSGeneralDataProcessor:417 - fire event for key horizontal_dop oldvalue=4.9 new=4.9
22:18:18,592 DEBUG GPSGeneralDataProcessor:417 - fire event for key altitude oldvalue=33.6 new=33.0
22:18:18,592 DEBUG propertychange:1175 - property change event: altitude=33.0 from org.dinopolis.gpstool.gpsinput.nmea.GPSNmeaDataProcessor@48ea48be
22:18:18,598 DEBUG gpsdata:1240 - gps event: 'altitude': old=33.6 new=33.0
22:18:18,608 DEBUG NMEA0183Sentence:62 - raw data='$GPGSA,A,2,21,15,09,,,,,,,,,,5.8,4.9,3.2*3C'
22:18:18,608 DEBUG message:342 - message: '$GPGSA,A,2,21,15,09,,,,,,,,,,5.8,4.9,3.2*3C'
22:18:18,608 DEBUG message:343 - sentenceId: 'GSA'
22:18:18,608 DEBUG nmea:654 - GSA detected: $GPGSA,A,2,21,15,09,,,,,,,,,,5.8,4.9,3.2*3C
22:18:18,609 DEBUG GPSGeneralDataProcessor:417 - fire event for key position_dop oldvalue=5.8 new=5.8
22:18:18,609 DEBUG GPSGeneralDataProcessor:417 - fire event for key horizontal_dop oldvalue=4.9 new=4.9
22:18:18,609 DEBUG GPSGeneralDataProcessor:417 - fire event for key vertical_dop oldvalue=3.2 new=3.2
22:18:18,609 DEBUG GPSGeneralDataProcessor:417 - fire event for key ids_satellites oldvalue=[Ljava.lang.Integer;@48fd918a new=[Ljava.lang.Integer;@7ca522a6
22:18:18,609 DEBUG propertychange:1175 - property change event: ids_satellites=[Ljava.lang.Integer;@7ca522a6 from org.dinopolis.gpstool.gpsinput.nmea.GPSNmeaDataProcessor@48ea48be
22:18:18,610 DEBUG gpsdata:1240 - gps event: 'ids_satellites': old=[Ljava.lang.Integer;@48fd918a new=[Ljava.lang.Integer;@7ca522a6
22:18:18,610 DEBUG NMEA0183Sentence:62 - raw data='$GPGSV,3,1,11,18,81,338,,09,58,120,22,21,51,199,27,15,40,059,26*7F'
22:18:18,610 DEBUG message:342 - message: '$GPGSV,3,1,11,18,81,338,,09,58,120,22,21,51,199,27,15,40,059,26*7F'
22:18:18,610 DEBUG message:343 - sentenceId: 'GSV'
22:18:18,610 DEBUG nmea:736 - GSV detected: $GPGSV,3,1,11,18,81,338,,09,58,120,22,21,51,199,27,15,40,059,26*7F
22:18:18,611 DEBUG NMEA0183Sentence:62 - raw data='$GPGSV,3,2,11,22,40,2r?®?Y3ê?20,243,,19,10,3bô®?33eí?,273,*7F'
22:18:18,611 DEBUG message:342 - message: '$GPGSV,3,2,11,22,40,2r?®?Y3ê?20,243,,19,10,3bô®?33eí?,273,*7F'
22:18:18,611 DEBUG message:343 - sentenceId: 'GSV'
22:18:18,611 ERROR GPSNmeaDataProcessor:368 - ERORR: invalid checksum in NMEA message: $GPGSV,3,2,11,22,40,2r?®?Y3ê?20,243,,19,10,3bô®?33eí?,273,*7F
22:18:18,611 ERROR GPSNmeaDataProcessor:369 - checksum of sentence: 127, calculated checksum: 22
22:18:18,612 DEBUG NMEA0183Sentence:62 - raw data='$GPGSV,3,3,11,03,06,284,,26,03,058,,28,03,026,*45'
22:18:18,612 DEBUG message:342 - message: '$GPGSV,3,3,11,03,06,284,,26,03,058,,28,03,026,*45'
22:18:18,612 DEBUG message:343 - sentenceId: 'GSV'
22:18:18,612 DEBUG nmea:736 - GSV detected: $GPGSV,3,3,11,03,06,284,,26,03,058,,28,03,026,*45
22:18:18,612 DEBUG nmea:749 - GSV-message in wrong order, ignoring it!
22:18:18,613 DEBUG NMEA0183Sentence:62 - raw data='$GPRMC,`?6¾ff®,4e?516.7684,N,07550.9749,W,0.82,307.49,041111,,,A*7C'
22:18:18,613 DEBUG message:342 - message: '$GPRMC,`?6¾ff®,4e?516.7684,N,07550.9749,W,0.82,307.49,041111,,,A*7C'
22:18:18,613 DEBUG message:343 - sentenceId: 'RMC'
22:18:18,613 ERROR GPSNmeaDataProcessor:368 - ERORR: invalid checksum in NMEA message: $GPRMC,`?6¾ff®,4e?516.7684,N,07550.9749,W,0.82,307.49,041111,,,A*7C
22:18:18,613 ERROR GPSNmeaDataProcessor:369 - checksum of sentence: 124, calculated checksum: 7
22:18:18,614 DEBUG NMEA0183Sentence:62 - raw data='$GPRMC,021301.866,A,4516.7691,N,07550.9762,W,1.30,308.12,041111,,,A*79'
22:18:18,614 DEBUG message:342 - message: '$GPRMC,021301.866,A,4516.7691,N,07550.9762,W,1.30,308.12,041111,,,A*79'
22:18:18,614 DEBUG message:343 - sentenceId: 'RMC'
22:18:18,615 DEBUG nmea:690 - RMC detected: $GPRMC,021301.866,A,4516.7691,N,07550.9762,W,1.30,308.12,041111,,,A*79
22:18:18,615 DEBUG GPSGeneralDataProcessor:417 - fire event for key location oldvalue=GPSPosition[lat: 45.279473333333335, long:-75.84958166666667] new=GPSPosition[lat: 45.279485, long:-75.84960333333333]
22:18:18,615 DEBUG propertychange:1175 - property change event: location=GPSPosition[lat: 45.279485, long:-75.84960333333333] from org.dinopolis.gpstool.gpsinput.nmea.GPSNmeaDataProcessor@48ea48be
22:18:18,615 DEBUG gpsdata:1228 - gps event: position old=LatLonPoint[lat=45.279472,lon=-75.84958], new=LatLonPoint[lat=45.279484,lon=-75.8496]
22:18:18,615 DEBUG GPSGeneralDataProcessor:417 - fire event for key speed oldvalue=1.7777777 new=2.4074073
22:18:18,615 DEBUG propertychange:1175 - property change event: speed=2.4074073 from org.dinopolis.gpstool.gpsinput.nmea.GPSNmeaDataProcessor@48ea48be
22:18:18,616 DEBUG gpsdata:1240 - gps event: 'speed': old=1.7777777 new=2.4074073
22:18:18,616 DEBUG NMEA0183Sentence:62 - raw data='$GPRMC,021302.866,A,4516.7696,N,07550.9771,W,1.71,310.95,041111,,,A*7C'
22:18:18,617 DEBUG message:342 - message: '$GPRMC,021302.866,A,4516.7696,N,07550.9771,W,1.71,310.95,041111,,,A*7C'
22:18:18,617 DEBUG message:343 - sentenceId: 'RMC'
22:18:18,617 DEBUG nmea:690 - RMC detected: $GPRMC,021302.866,A,4516.7696,N,07550.9771,W,1.71,310.95,041111,,,A*7C
22:18:18,617 DEBUG GPSGeneralDataProcessor:417 - fire event for key location oldvalue=GPSPosition[lat: 45.279485, long:-75.84960333333333] new=GPSPosition[lat: 45.279493333333335, long:-75.84961833333334]
22:18:18,617 DEBUG propertychange:1175 - property change event: location=GPSPosition[lat: 45.279493333333335, long:-75.84961833333334] from org.dinopolis.gpstool.gpsinput.nmea.GPSNmeaDataProcessor@48ea48be
22:18:18,618 DEBUG gpsdata:1228 - gps event: position old=LatLonPoint[lat=45.279484,lon=-75.8496], new=LatLonPoint[lat=45.279495,lon=-75.84962]
22:18:18,620 DEBUG GPSGeneralDataProcessor:417 - fire event for key speed oldvalue=2.4074073 new=3.1666665
22:18:18,620 DEBUG propertychange:1175 - property change event: speed=3.1666665 from org.dinopolis.gpstool.gpsinput.nmea.GPSNmeaDataProcessor@48ea48be
22:18:18,621 DEBUG gpsdata:1240 - gps event: 'speed': old=2.4074073 new=3.1666665
22:18:18,624 DEBUG NMEA0183Sentence:62 - raw data='$GPGGA,021303.866,4516.7697,N,07550.9773,W,1,03,4.9,31.7,M,-34.3,M,,0000*53'
22:18:18,624 DEBUG message:342 - message: '$GPGGA,021303.866,4516.7697,N,07550.9773,W,1,03,4.9,31.7,M,-34.3,M,,0000*53'
22:18:18,625 DEBUG message:343 - sentenceId: 'GGA'
22:18:18,625 DEBUG nmea:602 - GGA detected: $GPGGA,021303.866,4516.7697,N,07550.9773,W,1,03,4.9,31.7,M,-34.3,M,,0000*53
22:18:18,625 DEBUG GPSGeneralDataProcessor:417 - fire event for key location oldvalue=GPSPosition[lat: 45.279493333333335, long:-75.84961833333334] new=GPSPosition[lat: 45.279495, long:-75.84962166666666]
22:18:18,625 DEBUG propertychange:1175 - property change event: location=GPSPosition[lat: 45.279495, long:-75.84962166666666] from org.dinopolis.gpstool.gpsinput.nmea.GPSNmeaDataProcessor@48ea48be
22:18:18,625 DEBUG gpsdata:1228 - gps event: position old=LatLonPoint[lat=45.279495,lon=-75.84962], new=LatLonPoint[lat=45.279495,lon=-75.849625]
22:18:18,625 DEBUG GPSGeneralDataProcessor:417 - fire event for key number_satellites oldvalue=3 new=3
22:18:18,626 DEBUG GPSGeneralDataProcessor:417 - fire event for key horizontal_dop oldvalue=4.9 new=4.9
22:18:18,628 DEBUG GPSGeneralDataProcessor:417 - fire event for key altitude oldvalue=33.0 new=31.7
22:18:18,628 DEBUG propertychange:1175 - property change event: altitude=31.7 from org.dinopolis.gpstool.gpsinput.nmea.GPSNmeaDataProcessor@48ea48be
22:18:18,628 DEBUG gpsdata:1240 - gps event: 'altitude': old=33.0 new=31.7
22:18:18,628 DEBUG NMEA0183Sentence:62 - raw data='$GPGSA,A,2,21,15,09,,,,,,,,,,5.8,4.9,3.2*3C'
22:18:18,628 DEBUG message:342 - message: '$GPGSA,A,2,21,15,09,,,,,,,,,,5.8,4.9,3.2*3C'
22:18:18,629 DEBUG message:343 - sentenceId: 'GSA'
22:18:18,629 DEBUG nmea:654 - GSA detected: $GPGSA,A,2,21,15,09,,,,,,,,,,5.8,4.9,3.2*3C
22:18:18,629 DEBUG GPSGeneralDataProcessor:417 - fire event for key position_dop oldvalue=5.8 new=5.8
22:18:18,629 DEBUG GPSGeneralDataProcessor:417 - fire event for key horizontal_dop oldvalue=4.9 new=4.9
22:18:18,629 DEBUG GPSGeneralDataProcessor:417 - fire event for key vertical_dop oldvalue=3.2 new=3.2
22:18:18,629 DEBUG GPSGeneralDataProcessor:417 - fire event for key ids_satellites oldvalue=[Ljava.lang.Integer;@7ca522a6 new=[Ljava.lang.Integer;@55dec1dd
22:18:18,629 DEBUG propertychange:1175 - property change event: ids_satellites=[Ljava.lang.Integer;@55dec1dd from org.dinopolis.gpstool.gpsinput.nmea.GPSNmeaDataProcessor@48ea48be
22:18:18,630 DEBUG gpsdata:1240 - gps event: 'ids_satellites': old=[Ljava.lang.Integer;@7ca522a6 new=[Ljava.lang.Integer;@55dec1dd
22:18:18,631 DEBUG NMEA0183Sentence:62 - raw data='$GPRMC,021303.866,A,4516.7697,N,07550.9773,W,0.71,308\£v®3fí?11,,,A*79'
22:18:18,631 DEBUG message:342 - message: '$GPRMC,021303.866,A,4516.7697,N,07550.9773,W,0.71,308\£v®3fí?11,,,A*79'
22:18:18,631 DEBUG message:343 - sentenceId: 'RMC'
22:18:18,631 ERROR GPSNmeaDataProcessor:368 - ERORR: invalid checksum in NMEA message: $GPRMC,021303.866,A,4516.7697,N,07550.9773,W,0.71,308\£v®3fí?11,,,A*79
22:18:18,631 ERROR GPSNmeaDataProcessor:369 - checksum of sentence: 121, calculated checksum: 62
22:18:18,633 DEBUG NMEA0183Sentence:62 - raw data='$GPRMC,021304.866,A,4516.7697,N,07550.9774,W,0.03,281.87,041111,,,A*70'
22:18:18,633 DEBUG message:342 - message: '$GPRMC,021304.866,A,4516.7697,N,07550.9774,W,0.03,281.87,041111,,,A*70'
22:18:18,633 DEBUG message:343 - sentenceId: 'RMC'
22:18:18,634 DEBUG nmea:690 - RMC detected: $GPRMC,021304.866,A,4516.7697,N,07550.9774,W,0.03,281.87,041111,,,A*70
22:18:18,634 DEBUG GPSGeneralDataProcessor:417 - fire event for key location oldvalue=GPSPosition[lat: 45.279495, long:-75.84962166666666] new=GPSPosition[lat: 45.279495, long:-75.84962333333333]
22:18:18,634 DEBUG propertychange:1175 - property change event: location=GPSPosition[lat: 45.279495, long:-75.84962333333333] from org.dinopolis.gpstool.gpsinput.nmea.GPSNmeaDataProcessor@48ea48be
22:18:18,634 DEBUG gpsdata:1228 - gps event: position old=LatLonPoint[lat=45.279495,lon=-75.849625], new=LatLonPoint[lat=45.279495,lon=-75.849625]
22:18:18,634 DEBUG GPSGeneralDataProcessor:417 - fire event for key speed oldvalue=3.1666665 new=0.055555552
22:18:18,635 DEBUG propertychange:1175 - property change event: speed=0.055555552 from org.dinopolis.gpstool.gpsinput.nmea.GPSNmeaDataProcessor@48ea48be
22:18:18,635 DEBUG gpsdata:1240 - gps event: 'speed': old=3.1666665 new=0.055555552
22:18:18,636 DEBUG NMEA0183Sentence:62 - raw data='$GPGSV,3,1,11,18,81,338,,09,58,120,22,21,51,199,27,15,40,059,26*7F'
22:18:18,636 DEBUG message:342 - message: '$GPGSV,3,1,11,18,81,338,,09,58,120,22,21,51,199,27,15,40,059,26*7F'
22:18:18,636 DEBUG message:343 - sentenceId: 'GSV'
22:18:18,636 DEBUG nmea:736 - GSV detected: $GPGSV,3,1,11,18,81,338,,09,58,120,22,21,51,199,27,15,40,059,26*7F
22:18:18,637 DEBUG NMEA0183Sentence:62 - raw data='$GPGSV,3,2,11,22,40,296,,14,20,243,,19,10,316,,06,10,273,*7F'
22:18:18,637 DEBUG message:342 - message: '$GPGSV,3,2,11,22,40,296,,14,20,243,,19,10,316,,06,10,273,*7F'
22:18:18,637 DEBUG message:343 - sentenceId: 'GSV'
22:18:18,637 DEBUG nmea:736 - GSV detected: $GPGSV,3,2,11,22,40,296,,14,20,243,,19,10,316,,06,10,273,*7F
22:18:18,637 DEBUG NMEA0183Sentence:62 - raw data='$GPGSV,3,3,11,03,06,284,,26,03,058,,28,03,026,*45'
22:18:18,637 DEBUG message:342 - message: '$GPGSV,3,3,11,03,06,284,,26,03,058,,28,03,026,*45'
22:18:18,637 DEBUG message:343 - sentenceId: 'GSV'
22:18:18,638 DEBUG nmea:736 - GSV detected: $GPGSV,3,3,11,03,06,284,,26,03,058,,28,03,026,*45
22:18:18,638 DEBUG GPSGeneralDataProcessor:417 - fire event for key satellite_info oldvalue=[Lorg.dinopolis.gpstool.gpsinput.SatelliteInfo;@2e61a907 new=[Lorg.dinopolis.gpstool.gpsinput.SatelliteInfo;@4816ef71
22:18:18,638 DEBUG propertychange:1175 - property change event: satellite_info=[Lorg.dinopolis.gpstool.gpsinput.SatelliteInfo;@4816ef71 from org.dinopolis.gpstool.gpsinput.nmea.GPSNmeaDataProcessor@48ea48be
22:18:18,638 DEBUG gpsdata:1240 - gps event: 'satellite_info': old=[Lorg.dinopolis.gpstool.gpsinput.SatelliteInfo;@2e61a907 new=[Lorg.dinopolis.gpstool.gpsinput.SatelliteInfo;@4816ef71
22:18:18,638 DEBUG NMEA0183Sentence:62 - raw data='$GPRMC,021305.866,A,4516.77®í??fê?.9779,W,0.43,303.13,041111,,,A*70'
22:18:18,639 DEBUG message:342 - message: '$GPRMC,021305.866,A,4516.77®í??fê?.9779,W,0.43,303.13,041111,,,A*70'
22:18:18,639 DEBUG message:343 - sentenceId: 'RMC'
22:18:18,639 ERROR GPSNmeaDataProcessor:368 - ERORR: invalid checksum in NMEA message: $GPRMC,021305.866,A,4516.77®í??fê?.9779,W,0.43,303.13,041111,,,A*70
22:18:18,639 ERROR GPSNmeaDataProcessor:369 - checksum of sentence: 112, calculated checksum: 36
22:18:18,639 DEBUG NMEA0183Sentence:62 - raw data='$GPGGA,021306.866,4516.7697,N,07550.9774,W,1,03,4.9,31.4,M,-34.3,M,,0000*52'
22:18:18,640 DEBUG message:342 - message: '$GPGGA,021306.866,4516.7697,N,07550.9774,W,1,03,4.9,31.4,M,-34.3,M,,0000*52'
22:18:18,640 DEBUG message:343 - sentenceId: 'GGA'
22:18:18,640 DEBUG nmea:602 - GGA detected: $GPGGA,021306.866,4516.7697,N,07550.9774,W,1,03,4.9,31.4,M,-34.3,M,,0000*52
22:18:18,640 DEBUG GPSGeneralDataProcessor:417 - fire event for key location oldvalue=GPSPosition[lat: 45.279495, long:-75.84962333333333] new=GPSPosition[lat: 45.279495, long:-75.84962333333333]
22:18:18,640 DEBUG GPSGeneralDataProcessor:417 - fire event for key number_satellites oldvalue=3 new=3
22:18:18,640 DEBUG GPSGeneralDataProcessor:417 - fire event for key horizontal_dop oldvalue=4.9 new=4.9
22:18:18,640 DEBUG GPSGeneralDataProcessor:417 - fire event for key altitude oldvalue=31.7 new=31.4
22:18:18,641 DEBUG propertychange:1175 - property change event: altitude=31.4 from org.dinopolis.gpstool.gpsinput.nmea.GPSNmeaDataProcessor@48ea48be
22:18:18,641 DEBUG gpsdata:1240 - gps event: 'altitude': old=31.7 new=31.4
22:18:18,641 DEBUG NMEA0183Sentence:62 - raw data='$GPGSA,A,2,21,15,09,,,,,,,,,,5.9,4.9,3.2*3D'
22:18:18,641 DEBUG message:342 - message: '$GPGSA,A,2,21,15,09,,,,,,,,,,5.9,4.9,3.2*3D'
22:18:18,641 DEBUG message:343 - sentenceId: 'GSA'
22:18:18,642 DEBUG nmea:654 - GSA detected: $GPGSA,A,2,21,15,09,,,,,,,,,,5.9,4.9,3.2*3D
22:18:18,642 INFO  Gpsylon:585 - Plugins in the following locations are used:
22:18:18,642 INFO  Gpsylon:594 - /Users/francispapineau/Desktop/ECGJAVa2GOOD/gpsylon_bin-0.5.3/plugins
22:18:18,642 DEBUG GPSGeneralDataProcessor:417 - fire event for key position_dop oldvalue=5.8 new=5.9
22:18:18,643 DEBUG propertychange:1175 - property change event: position_dop=5.9 from org.dinopolis.gpstool.gpsinput.nmea.GPSNmeaDataProcessor@48ea48be
22:18:18,643 DEBUG gpsdata:1240 - gps event: 'position_dop': old=5.8 new=5.9
22:18:18,644 DEBUG GPSGeneralDataProcessor:417 - fire event for key horizontal_dop oldvalue=4.9 new=4.9
22:18:18,645 DEBUG GPSGeneralDataProcessor:417 - fire event for key vertical_dop oldvalue=3.2 new=3.2
22:18:18,645 DEBUG GPSGeneralDataProcessor:417 - fire event for key ids_satellites oldvalue=[Ljava.lang.Integer;@55dec1dd new=[Ljava.lang.Integer;@2814a18d
22:18:18,645 DEBUG propertychange:1175 - property change event: ids_satellites=[Ljava.lang.Integer;@2814a18d from org.dinopolis.gpstool.gpsinput.nmea.GPSNmeaDataProcessor@48ea48be
22:18:18,645 DEBUG gpsdata:1240 - gps event: 'ids_satellites': old=[Ljava.lang.Integer;@55dec1dd new=[Ljava.lang.Integer;@2814a18d
22:18:18,646 DEBUG NMEA0183Sentence:62 - raw data='$GPRMC,021306.866,A,4516.7697,N,07550.9674,W,0.43,136.92,041111,,,A7D'
22:18:18,646 ERROR GPSNmeaDataProcessor:374 - ERROR: Exception thrown on creation or processing of NMEA sentences:
22:18:18,646 ERROR GPSNmeaDataProcessor:375 - $GPRMC,021306.866,A,4516.7697,N,07550.9674,W,0.43,136.92,041111,,,A7D                     
22:18:18,648 DEBUG NMEA0183Sentence:62 - raw data='$GPRMC,021307.866,A,4516.7694,N,07550.9768,W,0.51,306.47,041111,,,A*78'
22:18:18,648 DEBUG message:342 - message: '$GPRMC,021307.866,A,4516.7694,N,07550.9768,W,0.51,306.47,041111,,,A*78'
22:18:18,649 DEBUG message:343 - sentenceId: 'RMC'
22:18:18,649 DEBUG nmea:690 - RMC detected: $GPRMC,021307.866,A,4516.7694,N,07550.9768,W,0.51,306.47,041111,,,A*78
22:18:18,649 DEBUG GPSGeneralDataProcessor:417 - fire event for key location oldvalue=GPSPosition[lat: 45.279495, long:-75.84962333333333] new=GPSPosition[lat: 45.27949, long:-75.84961333333334]
22:18:18,649 DEBUG propertychange:1175 - property change event: location=GPSPosition[lat: 45.27949, long:-75.84961333333334] from org.dinopolis.gpstool.gpsinput.nmea.GPSNmeaDataProcessor@48ea48be
22:18:18,649 DEBUG gpsdata:1228 - gps event: position old=LatLonPoint[lat=45.279495,lon=-75.849625], new=LatLonPoint[lat=45.27949,lon=-75.84962]
22:18:18,649 DEBUG GPSGeneralDataProcessor:417 - fire event for key speed oldvalue=0.055555552 new=0.9444444
22:18:18,650 DEBUG propertychange:1175 - property change event: speed=0.9444444 from org.dinopolis.gpstool.gpsinput.nmea.GPSNmeaDataProcessor@48ea48be
22:18:18,650 DEBUG gpsdata:1240 - gps event: 'speed': old=0.055555552 new=0.9444444
22:18:18,651 DEBUG NMEA0183Sentence:62 - raw data='$GPRMC,021308.866,A,4516.7686,N,07550.9753,W,0.33,133.83,041111,,,A*74'
22:18:18,656 DEBUG message:342 - message: '$GPRMC,021308.866,A,4516.7686,N,07550.9753,W,0.33,133.83,041111,,,A*74'
22:18:18,657 DEBUG message:343 - sentenceId: 'RMC'
22:18:18,657 DEBUG nmea:690 - RMC detected: $GPRMC,021308.866,A,4516.7686,N,07550.9753,W,0.33,133.83,041111,,,A*74
22:18:18,658 DEBUG GPSGeneralDataProcessor:417 - fire event for key location oldvalue=GPSPosition[lat: 45.27949, long:-75.84961333333334] new=GPSPosition[lat: 45.27947666666667, long:-75.84958833333333]
22:18:18,658 DEBUG propertychange:1175 - property change event: location=GPSPosition[lat: 45.27947666666667, long:-75.84958833333333] from org.dinopolis.gpstool.gpsinput.nmea.GPSNmeaDataProcessor@48ea48be
22:18:18,658 DEBUG gpsdata:1228 - gps event: position old=LatLonPoint[lat=45.27949,lon=-75.84962], new=LatLonPoint[lat=45.279476,lon=-75.84959]
22:18:18,658 DEBUG GPSGeneralDataProcessor:417 - fire event for key speed oldvalue=0.9444444 new=0.6111111
22:18:18,659 DEBUG propertychange:1175 - property change event: speed=0.6111111 from org.dinopolis.gpstool.gpsinput.nmea.GPSNmeaDataProcessor@48ea48be
22:18:18,659 DEBUG gpsdata:1240 - gps event: 'speed': old=0.9444444 new=0.6111111
22:18:18,659 DEBUG NMEA0183Sentence:62 - raw data='$GPGGA,021308.866,4516.7680,N,07550.9745,W,1,03,4.9,34.5,M,-34.3,M,,0000*5D'
22:18:18,659 DEBUG message:342 - message: '$GPGGA,021308.866,4516.7680,N,07550.9745,W,1,03,4.9,34.5,M,-34.3,M,,0000*5D'
22:18:18,660 DEBUG message:343 - sentenceId: 'GGA'
22:18:18,660 ERROR GPSNmeaDataProcessor:368 - ERORR: invalid checksum in NMEA message: $GPGGA,021308.866,4516.7680,N,07550.9745,W,1,03,4.9,34.5,M,-34.3,M,,0000*5D
22:18:18,660 ERROR GPSNmeaDataProcessor:369 - checksum of sentence: 93, calculated checksum: 92
22:18:18,660 DEBUG NMEA0183Sentence:62 - raw data='$GPGSA,A,2,21,15,09,,,,,,,,,,5.9,4.9,3.2*3D'
22:18:18,660 DEBUG message:342 - message: '$GPGSA,A,2,21,15,09,,,,,,,,,,5.9,4.9,3.2*3D'
22:18:18,660 DEBUG message:343 - sentenceId: 'GSA'
22:18:18,661 DEBUG nmea:654 - GSA detected: $GPGSA,A,2,21,15,09,,,,,,,,,,5.9,4.9,3.2*3D
22:18:18,661 DEBUG GPSGeneralDataProcessor:417 - fire event for key position_dop oldvalue=5.9 new=5.9
22:18:18,661 DEBUG GPSGeneralDataProcessor:417 - fire event for key horizontal_dop oldvalue=4.9 new=4.9
22:18:18,661 DEBUG GPSGeneralDataProcessor:417 - fire event for key vertical_dop oldvalue=3.2 new=3.2
22:18:18,680 DEBUG GPSGeneralDataProcessor:417 - fire event for key ids_satellites oldvalue=[Ljava.lang.Integer;@2814a18d new=[Ljava.lang.Integer;@53d439fe
22:18:18,680 DEBUG propertychange:1175 - property change event: ids_satellites=[Ljava.lang.Integer;@53d439fe from org.dinopolis.gpstool.gpsinput.nmea.GPSNmeaDataProcessor@48ea48be
22:18:18,680 DEBUG gpsdata:1240 - gps event: 'ids_satellites': old=[Ljava.lang.Integer;@2814a18d new=[Ljava.lang.Integer;@53d439fe
22:18:18,680 DEBUG NMEA0183Sentence:62 - raw data='$GPRMC,021309.866,A,4516.7680,N,07550.9745,W,1.03,133.78,041111,,,A*72'
22:18:18,680 DEBUG message:342 - message: '$GPRMC,021309.866,A,4516.7680,N,07550.9745,W,1.03,133.78,041111,,,A*72'
22:18:18,681 DEBUG message:343 - sentenceId: 'RMC'
22:18:18,681 DEBUG nmea:690 - RMC detected: $GPRMC,021309.866,A,4516.7680,N,07550.9745,W,1.03,133.78,041111,,,A*72
22:18:18,681 DEBUG GPSGeneralDataProcessor:417 - fire event for key location oldvalue=GPSPosition[lat: 45.27947666666667, long:-75.84958833333333] new=GPSPosition[lat: 45.279466666666664, long:-75.849575]
22:18:18,681 DEBUG propertychange:1175 - property change event: location=GPSPosition[lat: 45.279466666666664, long:-75.849575] from org.dinopolis.gpstool.gpsinput.nmea.GPSNmeaDataProcessor@48ea48be
22:18:18,681 DEBUG gpsdata:1228 - gps event: position old=LatLonPoint[lat=45.279476,lon=-75.84959], new=LatLonPoint[lat=45.27947,lon=-75.84957]
22:18:18,681 DEBUG GPSGeneralDataProcessor:417 - fire event for key speed oldvalue=0.6111111 new=1.9074073
22:18:18,682 DEBUG propertychange:1175 - property change event: speed=1.9074073 from org.dinopolis.gpstool.gpsinput.nmea.GPSNmeaDataProcessor@48ea48be
22:18:18,682 DEBUG gpsdata:1240 - gps event: 'speed': old=0.6111111 new=1.9074073
22:18:18,682 DEBUG NMEA0183Sentence:62 - raw data='$GPGGA,021310.866,4516.7682,N,07550.9748,W,1,03,4.9,f£¾,3eî?-34.3,M,,0000*5E'
22:18:18,682 DEBUG message:342 - message: '$GPGGA,021310.866,4516.7682,N,07550.9748,W,1,03,4.9,f£¾,3eî?-34.3,M,,0000*5E'
22:18:18,682 DEBUG message:343 - sentenceId: 'GGA'
22:18:18,683 ERROR GPSNmeaDataProcessor:368 - ERORR: invalid checksum in NMEA message: $GPGGA,021310.866,4516.7682,N,07550.9748,W,1,03,4.9,f£¾,3eî?-34.3,M,,0000*5E
22:18:18,683 ERROR GPSNmeaDataProcessor:369 - checksum of sentence: 94, calculated checksum: 23
22:18:18,683 DEBUG NMEA0183Sentence:62 - raw data='$GPGSA,A,2,21,15,09,,,,,,,,,,5.9,4.9,3.2*3D'
22:18:18,683 DEBUG message:342 - message: '$GPGSA,A,2,21,15,09,,,,,,,,,,5.9,4.9,3.2*3D'
22:18:18,684 DEBUG message:343 - sentenceId: 'GSA'
22:18:18,684 DEBUG nmea:654 - GSA detected: $GPGSA,A,2,21,15,09,,,,,,,,,,5.9,4.9,3.2*3D
22:18:18,684 DEBUG GPSGeneralDataProcessor:417 - fire event for key position_dop oldvalue=5.9 new=5.9
22:18:18,684 DEBUG GPSGeneralDataProcessor:417 - fire event for key horizontal_dop oldvalue=4.9 new=4.9
22:18:18,684 DEBUG GPSGeneralDataProcessor:417 - fire event for key vertical_dop oldvalue=3.2 new=3.2
22:18:18,684 DEBUG GPSGeneralDataProcessor:417 - fire event for key ids_satellites oldvalue=[Ljava.lang.Integer;@53d439fe new=[Ljava.lang.Integer;@ed0220c
22:18:18,685 DEBUG propertychange:1175 - property change event: ids_satellites=[Ljava.lang.Integer;@ed0220c from org.dinopolis.gpstool.gpsinput.nmea.GPSNmeaDataProcessor@48ea48be
22:18:18,685 DEBUG gpsdata:1240 - gps event: 'ids_satellites': old=[Ljava.lang.Integer;@53d439fe new=[Ljava.lang.Integer;@ed0220c
22:18:18,685 DEBUG NMEA0183Sentence:62 - raw data='$GPGSV,3,1,11,18,81,338,,09,58,120,21,21,51,199,27,15,40,059,26*7C'
22:18:18,685 DEBUG message:342 - message: '$GPGSV,3,1,11,18,81,338,,09,58,120,21,21,51,199,27,15,40,059,26*7C'
22:18:18,685 DEBUG message:343 - sentenceId: 'GSV'
22:18:18,686 DEBUG nmea:736 - GSV detected: $GPGSV,3,1,11,18,81,338,,09,58,120,21,21,51,199,27,15,40,059,26*7C
22:18:18,686 DEBUG NMEA0183Sentence:62 - raw data='$GPGSV,3,2,11,22,40,296,,14,20,243,,19,10,316,,06,10,273,*7F'
22:18:18,686 DEBUG message:342 - message: '$GPGSV,3,2,11,22,40,296,,14,20,243,,19,10,316,,06,10,273,*7F'
22:18:18,686 DEBUG message:343 - sentenceId: 'GSV'
22:18:18,686 DEBUG nmea:736 - GSV detected: $GPGSV,3,2,11,22,40,296,,14,20,243,,19,10,316,,06,10,273,*7F
22:18:18,687 DEBUG NMEA0183Sentence:62 - raw data='$GPGSV,3,3,11,03,06,284,,26,03,058,,28,03,026,*45'
22:18:18,687 DEBUG message:342 - message: '$GPGSV,3,3,11,03,06,284,,26,03,058,,28,03,026,*45'
22:18:18,687 DEBUG message:343 - sentenceId: 'GSV'
22:18:18,687 DEBUG nmea:736 - GSV detected: $GPGSV,3,3,11,03,06,284,,26,03,058,,28,03,026,*45
22:18:18,687 DEBUG GPSGeneralDataProcessor:417 - fire event for key satellite_info oldvalue=[Lorg.dinopolis.gpstool.gpsinput.SatelliteInfo;@4816ef71 new=[Lorg.dinopolis.gpstool.gpsinput.SatelliteInfo;@656dc861
22:18:18,687 DEBUG propertychange:1175 - property change event: satellite_info=[Lorg.dinopolis.gpstool.gpsinput.SatelliteInfo;@656dc861 from org.dinopolis.gpstool.gpsinput.nmea.GPSNmeaDataProcessor@48ea48be
22:18:18,688 DEBUG gpsdata:1240 - gps event: 'satellite_info': old=[Lorg.dinopolis.gpstool.gpsinput.SatelliteInfo;@4816ef71 new=[Lorg.dinopolis.gpstool.gpsinput.SatelliteInfo;@656dc861
22:18:18,689 DEBUG NMEA0183Sentence:62 - raw data='$GPGSA,A,2,21,15,09,,,,,,,,,,5.9,4.9,3.2*3D'
22:18:18,689 DEBUG message:342 - message: '$GPGSA,A,2,21,15,09,,,,,,,,,,5.9,4.9,3.2*3D'
22:18:18,689 DEBUG message:343 - sentenceId: 'GSA'
22:18:18,689 DEBUG nmea:654 - GSA detected: $GPGSA,A,2,21,15,09,,,,,,,,,,5.9,4.9,3.2*3D
22:18:18,689 DEBUG GPSGeneralDataProcessor:417 - fire event for key position_dop oldvalue=5.9 new=5.9
22:18:18,689 DEBUG GPSGeneralDataProcessor:417 - fire event for key horizontal_dop oldvalue=4.9 new=4.9
22:18:18,689 DEBUG GPSGeneralDataProcessor:417 - fire event for key vertical_dop oldvalue=3.2 new=3.2
22:18:18,690 DEBUG GPSGeneralDataProcessor:417 - fire event for key ids_satellites oldvalue=[Ljava.lang.Integer;@ed0220c new=[Ljava.lang.Integer;@1ee29820
22:18:18,690 DEBUG propertychange:1175 - property change event: ids_satellites=[Ljava.lang.Integer;@1ee29820 from org.dinopolis.gpstool.gpsinput.nmea.GPSNmeaDataProcessor@48ea48be
22:18:18,690 DEBUG gpsdata:1240 - gps event: 'ids_satellites': old=[Ljava.lang.Integer;@ed0220c new=[Ljava.lang.Integer;@1ee29820
22:18:18,690 DEBUG NMEA0183Sentence:62 - raw data='$GPRMC,021311.866,A,4516.7689,N,07550.9761,W,0.69,307.18,041111,,,A*7A'
22:18:18,691 DEBUG message:342 - message: '$GPRMC,021311.866,A,4516.7689,N,07550.9761,W,0.69,307.18,041111,,,A*7A'
22:18:18,691 DEBUG message:343 - sentenceId: 'RMC'
22:18:18,691 DEBUG nmea:690 - RMC detected: $GPRMC,021311.866,A,4516.7689,N,07550.9761,W,0.69,307.18,041111,,,A*7A
22:18:18,691 DEBUG GPSGeneralDataProcessor:417 - fire event for key location oldvalue=GPSPosition[lat: 45.279466666666664, long:-75.849575] new=GPSPosition[lat: 45.27948166666667, long:-75.84960166666667]
22:18:18,691 DEBUG propertychange:1175 - property change event: location=GPSPosition[lat: 45.27948166666667, long:-75.84960166666667] from org.dinopolis.gpstool.gpsinput.nmea.GPSNmeaDataProcessor@48ea48be
22:18:18,691 DEBUG gpsdata:1228 - gps event: position old=LatLonPoint[lat=45.27947,lon=-75.84957], new=LatLonPoint[lat=45.27948,lon=-75.8496]
22:18:18,691 DEBUG GPSGeneralDataProcessor:417 - fire event for key speed oldvalue=1.9074073 new=1.2777777
22:18:18,692 DEBUG propertychange:1175 - property change event: speed=1.2777777 from org.dinopolis.gpstool.gpsinput.nmea.GPSNmeaDataProcessor@48ea48be
22:18:18,692 DEBUG gpsdata:1240 - gps event: 'speed': old=1.9074073 new=1.2777777
22:18:18,693 DEBUG NMEA0183Sentence:62 - raw data='$GPRMC,021312.866,A,4516.7691,N,07550.9766,W,0.22,140.53,041111,,,A*76'
22:18:18,693 DEBUG message:342 - message: '$GPRMC,021312.866,A,4516.7691,N,07550.9766,W,0.22,140.53,041111,,,A*76'
22:18:18,693 DEBUG message:343 - sentenceId: 'RMC'
22:18:18,693 DEBUG nmea:690 - RMC detected: $GPRMC,021312.866,A,4516.7691,N,07550.9766,W,0.22,140.53,041111,,,A*76
22:18:18,693 DEBUG GPSGeneralDataProcessor:417 - fire event for key location oldvalue=GPSPosition[lat: 45.27948166666667, long:-75.84960166666667] new=GPSPosition[lat: 45.279485, long:-75.84961]
22:18:18,693 DEBUG propertychange:1175 - property change event: location=GPSPosition[lat: 45.279485, long:-75.84961] from org.dinopolis.gpstool.gpsinput.nmea.GPSNmeaDataProcessor@48ea48be
22:18:18,694 DEBUG gpsdata:1228 - gps event: position old=LatLonPoint[lat=45.27948,lon=-75.8496], new=LatLonPoint[lat=45.279484,lon=-75.84961]
22:18:18,694 DEBUG GPSGeneralDataProcessor:417 - fire event for key speed oldvalue=1.2777777 new=0.4074074
22:18:18,695 INFO  Gpsylon:1440 - Added Gui Plugin: Average Position V0.01
22:18:18,704 DEBUG propertychange:1175 - property change event: speed=0.4074074 from org.dinopolis.gpstool.gpsinput.nmea.GPSNmeaDataProcessor@48ea48be
22:18:18,704 DEBUG gpsdata:1240 - gps event: 'speed': old=1.2777777 new=0.4074074
22:18:18,704 INFO  Gpsylon:1440 - Added Gui Plugin: GPSTool V0.01
22:18:18,705 DEBUG NMEA0183Sentence:62 - raw data='$GPRMC,021313.866,A,4516.7687,N,07550.9758,W,1.72,132.14,041111,,,A*7F'
22:18:18,705 DEBUG message:342 - message: '$GPRMC,021313.866,A,4516.7687,N,07550.9758,W,1.72,132.14,041111,,,A*7F'
22:18:18,705 DEBUG message:343 - sentenceId: 'RMC'
22:18:18,706 DEBUG nmea:690 - RMC detected: $GPRMC,021313.866,A,4516.7687,N,07550.9758,W,1.72,132.14,041111,,,A*7F
22:18:18,706 DEBUG GPSGeneralDataProcessor:417 - fire event for key location oldvalue=GPSPosition[lat: 45.279485, long:-75.84961] new=GPSPosition[lat: 45.27947833333333, long:-75.84959666666667]
